OPIS Truckstop ID,Truckstop Name,Address,City,State,Rack ID,Retail Price,latitude,longitude,geocode_place_name,geocode_place_type,geocode_relevance,geocode_status
7,WOODSHED OF BIG CABIN,"I-44, EXIT 283 & US-69",Big Cabin,OK,307,3.00733333,36.54074659344628,-95.22209296873365,"Big Cabin, Oklahoma, United States",municipality,0.594444,ok
9,KWIK TRIP #796,"I-94, EXIT 143 & US-12 & SR-21",Tomah,WI,420,3.28733333,44.974969329405866,-90.57180136442184,"12 Reservoir, Wisconsin, United States",major_landform,0.50202,ok
20,PILOT TRAVEL CENTER #1243,"I-8, EXIT 119 & SR-85",Gila Bend,AZ,930,3.899,32.94761860196962,-112.71449960768223,"Gila Bend, Arizona, United States",municipality,0.594444,ok
20,PILOT #1243,"I-8, EXIT 119 & SR-85",Gila Bend,AZ,930,3.899,32.94761860196962,-112.71449960768223,"Gila Bend, Arizona, United States",municipality,0.594444,ok
28,LITTLEFIELD EXPRESS #2,"I-540, EXIT 12 & US-71",Fort Smith,AR,645,3.399,35.38803399289072,-94.42650116980076,"Fort Smith, Arkansas, United States",municipality,0.594444,ok
35,ACI TRUCK STOP,US-46,Columbia,NJ,90,3.079,40.919781126488,-75.08329390223304,"US 46, Knowlton Township, New Jersey 07832, United States",address,1,ok
36,SHENANDOAH TRUCK CENTER,"I-81, EXIT 273 & SR-703/SR-292",Mount Jackson,VA,60,2.899,38.76121232151462,-78.63192711381839,"Conicville Boulevard, Mount Jackson, Virginia 22842, United States",address,0.657481,ok
44,CIRCLE K #2612042,"I-35,  EXIT 271",Jarrell,TX,595,2.919,30.824909481473295,-97.60445415973663,"Jarrell, Texas, United States",municipality,0.607143,ok
46,PETRO STOPPING CENTER #348,"I-85,  EXIT 22 & CR-138",Shorter,AL,720,3.154,32.394861633143385,-85.91690205037594,"Shorter, Alabama, United States",municipality,0.564815,ok
49,TA SEYMOUR TRAVEL CENTER,"I-65, EXIT 50 & US-50 & US-31",Seymour,IN,415,3.959,40.327012804136224,-86.17469351738691,"Indiana, United States",region,0.451178,ok
50,TA COUNCIL BLUFFS TRAVEL CENTER,"I-29 & I-80, EXIT 3",Council Bluffs,IA,319,3.72566666,41.258841208716795,-95.8519484102726,"Council Bluffs, Iowa, United States",municipality,0.594444,ok
56,TOPS TRUCK STOP,"I-94, EXIT 182 & US-83",Sterling,ND,390,3.51566666,47.620146262872034,-100.54073709994555,"North Dakota, United States",region,0.469136,ok
75,Good 2 Go #709,US-50,Montrose,CO,810,3.424,38.4567747969855,-107.65083390256467,"US 50, Montrose, Colorado 81401, United States",address,1,ok
77,OASIS TRAVEL PLAZA,US-13,Laurel,DE,243,3.229,42.271862,-71.23411900000002,"13 Laurel Drive, Needham, Massachusetts 02492, United States",address,0.707099,ok
79,DELAWARE TRUCK PLAZA,US-13 & US-40,New Castle                              ,DE,243,3.249,39.66205736984415,-75.56631345301867,"New Castle, Delaware, United States",municipality,0.638889,ok
81,One9 #89,"I-75, EXIT 224",Ellenton,FL,225,3.439,27.521705229830523,-82.52759635448456,"Ellenton, Manatee, United States",place,0.607143,ok
85,DOWNIEVILLE FUEL STOP,"I-70, EXIT 234",Dumont,CO,800,3.459,39.76468875817808,-105.60033716261387,"Dumont, Clear Creek, United States",place,0.607143,ok
91,MOLLYS FOOD & FUEL,"I-20 & ST 22, EXIT 55",Crawfordville                           ,GA,135,3.499,33.553994071625745,-82.89619021117687,"Crawfordville, Georgia, United States",municipality,0.564815,ok
105,TA SAGINAW I 75 TRAVEL CENTER,"I-75, EXIT 144-B",Bridgeport,MI,260,3.269,43.35946964528284,-83.88163648545742,"Bridgeport, Bridgeport Charter Township, United States",place,0.583333,ok
105,TA SAGINAW I 75 TRAVEL CENTER,"I-75, EXIT 144-B",Bridgeport,MI,260,3.339,43.35946964528284,-83.88163648545742,"Bridgeport, Bridgeport Charter Township, United States",place,0.583333,ok
105,TA SAGINAW I 75 TRAVEL CENTER,"I-75, EXIT 144-B",Bridgeport,MI,260,3.429,43.35946964528284,-83.88163648545742,"Bridgeport, Bridgeport Charter Township, United States",place,0.583333,ok
105,TA SAGINAW I 75 TRAVEL CENTER,"I-75, EXIT 144-B",Bridgeport,MI,260,3.289,43.35946964528284,-83.88163648545742,"Bridgeport, Bridgeport Charter Township, United States",place,0.583333,ok
105,TA SAGINAW I 75 TRAVEL CENTER,"I-75, EXIT 144-B",Bridgeport,MI,260,3.399,43.35946964528284,-83.88163648545742,"Bridgeport, Bridgeport Charter Township, United States",place,0.583333,ok
105,TA SAGINAW I 75 TRAVEL CENTER,"I-75, EXIT 144-B",Bridgeport,MI,260,3.299,43.35946964528284,-83.88163648545742,"Bridgeport, Bridgeport Charter Township, United States",place,0.583333,ok
118,Lupton Truck Stop #567,"I-40, EXIT 359",Lupton,AZ,580,3.299,35.35391285236289,-109.05370105057955,"Lupton, Apache, United States",place,0.607143,ok
121,PETRO STOPPING CENTER #306,"I-10, EXIT 200",Eloy,AZ,930,3.474,32.80820445874877,-111.60268611577271,"Eloy, Arizona, United States",municipality,0.607143,ok
127,CIRCLE K #4700095,US-41,Henderson,KY,340,3.609,37.869991248888525,-87.57070732812758,"US Highway 41, Henderson, Kentucky 42420, United States",address,0.936667,ok
128,THE EFFINGHAM CHROME SHOP,"I-57 & I-70, EXIT 159",Effingham                               ,IL,510,3.399,39.12014351736453,-88.54348003864288,"Effingham, Illinois, United States",municipality,0.564815,ok
128,THE EFFINGHAM CHROME SHOP,"I-57 & I-70, EXIT 159",Effingham                               ,IL,510,3.349,39.12014351736453,-88.54348003864288,"Effingham, Illinois, United States",municipality,0.564815,ok
128,THE EFFINGHAM CHROME SHOP,"I-57 & I-70, EXIT 159",Effingham                               ,IL,510,3.549,39.12014351736453,-88.54348003864288,"Effingham, Illinois, United States",municipality,0.564815,ok
135,LOVES TRAVEL STOP #766,"I-80, EXIT 27",Atkinson,IL,290,3.589,41.44046900000001,-90.30339989999999,"I-80, Henry, Illinois 61254, United States",address,0.670635,ok
135,LOVES TRAVEL STOP #766,"I-80, EXIT 27",Atkinson,IL,290,3.389,41.44046900000001,-90.30339989999999,"I-80, Henry, Illinois 61254, United States",address,0.670635,ok
135,LOVES TRAVEL STOP #766,"I-80, EXIT 27",Atkinson,IL,290,3.449,41.44046900000001,-90.30339989999999,"I-80, Henry, Illinois 61254, United States",address,0.670635,ok
147,SPEEDWAY #8039,"I-69, EXIT 234 & SR-67",Daleville,IN,375,3.624,40.121154622506864,-85.55803019553423,"Daleville, Indiana, United States",municipality,0.564815,ok
149,RAYS TRUCK WASH,"I-69, EXIT 309 & US-30",Fort Wayne                              ,IN,370,3.59233333,41.07999005091303,-85.13860177248716,"Fort Wayne, Indiana, United States",municipality,0.594444,ok
151,CUBBYS #2101,"I-80, EXIT 211 & SR-47",Gothenburg,NE,475,3.13233333,40.92773258365164,-100.16198974102736,"Gothenburg, Nebraska, United States",municipality,0.564815,ok
159,PILOT TRAVEL CENTER #87,"I-10, EXIT 343",Jacksonville,FL,75,3.859,30.394482,-81.546652,"10 Blount Island Boulevard, Jacksonville, Florida 32226, United States",address,0.619048,ok
159,PILOT TRAVEL CENTERS #87,"I-10, EXIT 343",Jacksonville,FL,75,3.859,30.394482,-81.546652,"10 Blount Island Boulevard, Jacksonville, Florida 32226, United States",address,0.619048,ok
160,PILOT TRAVEL CENTERS #79,"I-12, EXIT 10 AT MILE 10",Denham Springs                          ,LA,600,3.23233333,30.486856523301594,-90.9562125429511,"Denham Springs, Louisiana, United States",municipality,1,ok
164,FLYING J TRAVEL PLAZA #650,"I-94, EXIT 15 B",Lake Station                            ,IN,365,3.809,41.57503700730708,-87.23892465233803,"Lake Station, Indiana, United States",municipality,0.614198,ok
167,FLYING J TRAVEL PLAZA #653,RT 2 & I-65 EXIT 240,Hebron,IN,365,3.43566666,41.31864830465955,-87.20030922442675,"Hebron, Indiana, United States",municipality,0.564815,ok
174,Hop-In Food Stores,US-59 & SR-224,Nacogdoches                             ,TX,618,2.859,31.728448035549217,-94.60902152470737,"US 59, Appleby, Texas 75965, United States",address,0.928571,ok
184,SAPP BROS TRAVEL CENTER,"I-29 & I-80, EXIT 1B",Council Bluffs,IA,486,3.719,41.258841208716795,-95.8519484102726,"Council Bluffs, Iowa, United States",municipality,0.594444,ok
186,COFFEE CUP FUEL STOP #5,"I-90, EXIT 154 & US-16",Moorcroft                               ,WY,822,3.239,44.263315054003556,-104.95025217533112,"Moorcroft, Wyoming, United States",municipality,0.470679,ok
187,DUDLEYS CORNER,"I-35, EXIT 165 & SR-3",Latimer,IA,433,3.23233333,42.76359040964162,-93.36876466870308,"Latimer, Iowa, United States",municipality,0.564815,ok
191,KUM & GO #0302,"I-35, EXIT 193 & SR 106",Clear Lake,IA,433,3.18566666,43.13707514822977,-93.38136401027441,"Clear Lake, Iowa, United States",municipality,0.594444,ok
192,Brew Stuart Truckstop,"I-80, EXIT 93",Stuart                                  ,IA,320,3.099,41.640745006415706,-91.054125,"I-80, Cedar, Iowa 52778, United States",address,0.670635,ok
195,PETRO STOPPING CENTER #311,"I-40 & I-55, EXIT 280",West Memphis,AR,435,3.36733333,35.14647992068686,-90.18453899770975,"West Memphis, Arkansas, United States",municipality,0.594444,ok
198,SINCLAIR,"I-76, EXIT 115",Atwood,CO,800,3.299,40.54776199219306,-103.26965779066086,"Atwood, Logan, United States",place,0.607143,ok
199,PETRO STOPPING CENTER #366,"I-70, EXIT 252",Salina,KS,523,3.80566666,38.840280569416365,-97.61142387986183,"Salina, Kansas, United States",municipality,0.607143,ok
203,PILOT TRAVEL CENTER #31,"I-80/94, EXIT 2",Highland,IN,365,3.829,38.04506181332059,-87.56292913109064,"Highland, Indiana, United States",municipality,0.607143,ok
203,PILOT TRAVEL CENTERS #31,"I-80/94, EXIT 2",Highland,IN,365,3.799,38.04506181332059,-87.56292913109064,"Highland, Indiana, United States",municipality,0.607143,ok
207,MARATHON,SR-32,Sardinia                                ,OH,300,3.56566666,39.01826729999999,-83.82519639999998,"State Route 32, Washington Township, Ohio 45171, United States",address,0.772222,ok
216,CIRCLE K #2721593,"I-10, EXIT 50",Ocean Springs,MS,715,3.41566666,30.409814983164253,-88.77733514755073,"Ocean Springs, Mississippi, United States",municipality,0.638889,ok
217,NORTH 9TH 24/7,"I-70, EXIT 252",Salina,KS,523,3.02566666,38.840280569416365,-97.61142387986183,"Salina, Kansas, United States",municipality,0.607143,ok
231,DERBY CITYS TRUCK PLAZA,"I-75, EXIT 62 & US-25",Mount Vernon,KY,410,2.999,38.18930388130328,-84.55614367664992,"Mount Vernon, Georgetown, United States",neighbourhood,0.594444,ok
235,PILOT TRAVEL CENTERS #92,"I-75, EXIT 358",Ocala,FL,225,3.359,26.1461024,-80.46690109999997,"I-75, Broward, Florida 33327, United States",address,0.670635,ok
235,PILOT TRAVEL CENTER #92,"I-75, EXIT 358",Ocala,FL,225,3.41233333,26.1461024,-80.46690109999997,"I-75, Broward, Florida 33327, United States",address,0.670635,ok
240,LA 1 SOUTH TRUCKSTOP,"I-10, EXIT 153 & SR-1",Port Allen,LA,600,3.039,30.453350169704947,-91.21005713939667,"Port Allen, Louisiana, United States",municipality,0.594444,ok
243,SAVE,US-41 & SR-10,Lake Village,IN,399,3.179,41.13753468102615,-87.44864389300346,"Lake Village, Newton, United States",place,0.638889,ok
244,BIG D TRUCK TRAVEL PLAZA,"I-10, EXIT 92 & SR-95",Duson,LA,725,2.98233333,30.23610197398135,-92.19217782480962,"Duson, Louisiana, United States",municipality,0.564815,ok
248,Mardi Gras Truck Stop,"I-10, EXIT 236",New Orleans,LA,725,3.729,29.956142397275077,-90.07339362055063,"New Orleans, Louisiana, United States",municipality,0.638889,ok
250,GOLDEN OX TRUCK STOP,"I-70/US-40, EXIT 159 & US-183",Hays,KS,523,3.499,38.87099850549415,-99.33115269988775,"Hays, Kansas, United States",municipality,0.537879,ok
253,LOVES TRAVEL STOP #450,"I-40, EXIT 280 & I-55, EXIT 4",West Memphis,AR,435,3.32566666,35.14647992068686,-90.18453899770975,"West Memphis, Arkansas, United States",municipality,0.564815,ok
256,BFS FOODS #66,"I-68/US-40, EXIT 22 & US-219",Grantsville                             ,MD,165,3.899,39.51624033767704,-76.9382070377469,"Maryland, United States",region,0.451178,ok
257,PILOT TRAVEL CENTER #917- TOWN PUMP,I-15 & 31ST STREET EXIT 277,Great Falls                             ,MT,815,3.63566666,47.50488526203768,-111.29189014434814,"Great Falls, Montana, United States",municipality,0.594444,ok
263,CASEYS #3956,I-94 EXIT 16,Bridgman,MI,465,3.559,42.107364936550496,-86.39855411377943,"I-94, Benton Charter Township, Michigan 49022, United States",address,0.670635,ok
267,CORNER MARKET #117,SR-154 & SR-129,Dodge City,KS,357,3.399,37.752798461313645,-100.01707870513201,"Dodge City, Kansas, United States",municipality,0.638889,ok
269,PILOT TRAVEL CENTERS #24,"I-75, EXIT 15",Monroe                                  ,MI,325,3.299,41.91450387785368,-83.39682552963495,"Monroe, Michigan, United States",municipality,0.607143,ok
269,PILOT TRAVEL CENTERS #24,"I-75, EXIT 15",Monroe                                  ,MI,325,3.249,41.91450387785368,-83.39682552963495,"Monroe, Michigan, United States",municipality,0.607143,ok
269,PILOT TRAVEL CENTERS #24,"I-75, EXIT 15",Monroe                                  ,MI,325,3.439,41.91450387785368,-83.39682552963495,"Monroe, Michigan, United States",municipality,0.607143,ok
269,PILOT TRAVEL CENTERS #24,"I-75, EXIT 15",Monroe                                  ,MI,325,3.349,41.91450387785368,-83.39682552963495,"Monroe, Michigan, United States",municipality,0.607143,ok
269,PILOT TRAVEL CENTERS #24,"I-75, EXIT 15",Monroe                                  ,MI,325,3.559,41.91450387785368,-83.39682552963495,"Monroe, Michigan, United States",municipality,0.607143,ok
278,CARLISLE PLAZA,US-41,Carlisle,IN,510,3.499,38.955122333892085,-87.40622543045458,"South Old US Highway 41, Carlisle, Indiana 47838, United States",address,0.81,ok
281,CIRCLE K #4700065,"I-65, EXIT 76 & US-31",Taylorsville,IN,375,3.399,39.295884521547464,-85.9508266299963,"Taylorsville, Indiana, United States",municipality,0.564815,ok
289,LOVES TRAVEL STOP #173,"I-70, MM 209",Lawrence,KS,553,3.229,39.01949027265996,-95.50791812855175,"I-70, Shawnee, Kansas 66542, United States",address,0.674603,ok
292,PETES #56,US-169 & CR-5000,Cherryvale,KS,307,3.23233333,37.26532800771799,-95.54642260833333,"Crescent 5550, Cherryvale, Kansas 67335, United States",address,0.618095,ok
293,LOVES TRAVEL STOP #176,"I-35, MILE MARKER 97",Matfield Green,KS,336,3.25566666,38.15918452166505,-96.5605665743351,"Matfield Green, Kansas, United States",municipality,0.614198,ok
304,FL Roberts,"I-91, EXIT 4",Springfield,MA,100,3.599,42.09972471853618,-72.54919982681349,"Island Pond Road, Springfield, Massachusetts 01118, United States",address,0.665238,ok
309,QUIKTRIP #231,"I-635, EXIT 3",Kansas City,KS,400,3.199,39.113456411452255,-94.62649706751108,"Kansas City, Kansas, United States",municipality,0.555556,ok
323,SAPP BROS TRAVEL CENTER,"I-80, EXIT 126",Ogallala,NE,475,3.46566666,41.001817900000006,-96.31837139999999,"I-80, South Bend Precinct, Nebraska 68003, United States",address,0.670635,ok
326,FLYING J TRAVEL PLAZA #748,"I-15, EXIT 357",Willard                                 ,UT,835,3.749,41.408549718544855,-112.03819032758474,"Willard, Utah, United States",municipality,0.607143,ok
341,TA JACKSONVILLE SOUTH TRAVEL CENTER,"I-95, EXIT 329",Saint Johns,FL,75,3.469,29.863884820358066,-81.39833316153846,"I 95, Saint Johns, Florida 32092, United States",address,0.944444,ok
347,7-ELEVEN #40514,I-90/80-IN TOLL RD MM 22E,Portage,IN,365,3.99066666,41.57587096448098,-87.1761455386877,"Portage, Indiana, United States",municipality,0.55,ok
358,TA BINGHAMTON TRAVELCENTER,"I-81N, EXIT 2W & I-81S, EXIT 3",Binghamton,NY,32,3.769,42.0986980648345,-75.91251891106367,"City of Binghamton, United States",joint_municipality,0.537879,ok
358,TA BINGHAMTON TRAVELCENTER,"I-81N, EXIT 2W & I-81S, EXIT 3",Binghamton,NY,32,3.689,42.0986980648345,-75.91251891106367,"City of Binghamton, United States",joint_municipality,0.537879,ok
358,TA BINGHAMTON TRAVELCENTER,"I-81N, EXIT 2W & I-81S, EXIT 3",Binghamton,NY,32,3.699,42.0986980648345,-75.91251891106367,"City of Binghamton, United States",joint_municipality,0.537879,ok
358,TA BINGHAMTON TRAVELCENTER,"I-81N, EXIT 2W & I-81S, EXIT 3",Binghamton,NY,32,3.739,42.0986980648345,-75.91251891106367,"City of Binghamton, United States",joint_municipality,0.537879,ok
361,CIRCLE K #2726293,"I-295, EXIT 25",Jacksonville,FL,75,3.31566666,30.17452560566618,-81.61293260285117,"I-295, Florida, United States",road,0.761905,ok
368,WILTON TRAVEL PLAZA,"I-87, EXIT 16",Gansevoort                              ,NY,12,3.749,43.19620524911431,-73.65139693021774,"Gansevoort, Town of Northumberland, United States",place,0.607143,ok
368,WILTON TRAVEL PLAZA,"I-87, EXIT 16",Gansevoort                              ,NY,12,3.799,43.19620524911431,-73.65139693021774,"Gansevoort, Town of Northumberland, United States",place,0.607143,ok
372,GAS DEPOT,"I-94, EXIT 5",Hammond,IN,365,3.999,41.61739593012154,-87.52201102674007,"Hammond, Indiana, United States",municipality,0.607143,ok
381,7-Eleven #41830,US-69 & US-135,Jacksonville,TX,630,2.91566666,31.971554901023023,-95.2671275441823,"US Highway 69 North, Jacksonville, Texas 75766, United States",address,0.75,ok
387,Circle K #2709664,"I-8, EXIT 12",Yuma,AZ,930,3.489,37.20715128274235,-113.39271107301505,"12, Hurricane, United States",place,0.703373,ok
388,Pilot Travel Centers #14,"I-71, EXIT 131",Sunbury,OH,315,3.719,40.24719622522846,-82.86598528099006,"Sunbury, Ohio, United States",municipality,0.607143,ok
391,PILOT TRAVEL CENTERS #13,"I-71, EXIT 209",Seville,OH,305,3.699,41.01007719633436,-81.86222244054079,"Seville, Ohio, United States",municipality,0.607143,ok
403,TRUCKOMAT OF HEBRON,"I-70, EXIT 126 & SR-37",Hebron,OH,315,3.429,39.96445845473717,-82.48968079181992,"Hebron, Ohio, United States",municipality,0.564815,ok
407,FUEL MART #641,"I-80 & I-280, EXIT 71",Perrysburg                              ,OH,550,3.499,41.55711799693676,-83.62793236970901,"Perrysburg, Ohio, United States",municipality,0.564815,ok
421,PETRO STOPPING CENTER #316,"I-40 & I-35, EXIT 127",Oklahoma City,OK,483,3.30233333,35.467740599999985,-97.46683209999998,"E I-40 Hwy & N I-35 Highway, Oklahoma City, Oklahoma 73117, United States",address,0.608889,ok
424,E EXPRESS,"I-40, EXIT 166",Choctaw,OK,483,2.899,35.39571575076973,-97.27001150000001,"E I-40 Highway, Oklahoma City, Oklahoma 73020, United States",address,0.666667,ok
425,Neighbors Express,"I-16, EXIT 51",Dublin                                  ,GA,85,3.299,32.54044491467591,-82.90375404059887,"Dublin, Georgia, United States",municipality,0.607143,ok
442,WESTERN COOP,US-385 & SR-2,Alliance,NE,795,3.324,42.307796555910336,-102.576708225,"Alliance, Sheridan, United States",place,0.607143,ok
455,MR FUEL #753,"I-95, EXIT 104 & SR-207",Ruther Glen,VA,180,3.26566666,37.940875477620914,-77.46186476200819,"Ruther Glen, Caroline, United States",place,0.594444,ok
456,THE COUNTRY OASIS,US-24,Woodburn                                ,IN,370,3.399,41.125493615617145,-84.91930020394364,"Old US 24, Allen, Indiana 46797, United States",address,0.708889,ok
458,HAPPY HILLS GAS & COFFEE,I-29 EXIT 110,Rock Port,MO,400,3.399,40.41111225492543,-95.51692876964808,"Rock Port, Missouri, United States",municipality,0.638889,ok
460,TRUCK STOP 44,I-20 EXIT 44,Gilbert,SC,135,3.079,33.92342391407568,-81.39312247436118,"Gilbert, South Carolina, United States",municipality,0.607143,ok
461,SPINX #271,"I-26, EXIT 145 & US-601",Orangeburg,SC,42,3.26233333,33.405494662287346,-80.77842928469181,"Orangeburg, South Carolina, United States",county,0.564815,ok
469,LOAF N JUG #750010,US-160 & SR-17,Alamosa,CO,803,3.259,37.578099632257896,-105.78904531896114,"Alamosa, Colorado, United States",county,0.607143,ok
474,KEWANEE 1 STOP,"I-20, EXIT 169 & US-80",Toomsuba,MS,705,3.299,32.37262113164912,-88.6682531598982,"Highway 11 & US-80, Meridian, Mississippi 39301, United States",address,0.603877,ok
478,GASTRAK OF PEMBINA,"I-29, EXIT 215",Pembina                                 ,ND,355,3.299,48.999148149979646,-97.23921853648028,"Highway I-29, Pembina, North Dakota 58271, United States",address,0.880952,ok
483,ALLSUPS #2387,US-54/SR-136/SR-3 & US-64,Guymon,OK,585,2.97566666,36.68141316340793,-101.4814243465662,"Guymon, Oklahoma, United States",municipality,0.537879,ok
486,LA NORIA CONV STORES,"I-35 N, EXIT 4",Laredo                                  ,TX,693,3.299,27.67808408274259,-99.4673981441544,"I-35 Frontage Road, Laredo, Texas 78045, United States",address,0.8,ok
489,EDDIES CORNER,US-87 & US-191,Moore,MT,815,3.749,46.97510975612659,-109.69519538115702,"Moore, Montana, United States",municipality,0.607143,ok
491,One9 #403,"I-75, EXIT 117",Heiskell,TN,405,2.999,36.38248529999999,-84.24377830000003,"I-75 Exit, Campbell, Tennessee 37847, United States",address,0.79369,ok
496,PILOT TRAVEL CENTERS #270,"I-40 & I-75, EXIT 374",Knoxville,TN,405,3.439,36.38248529999999,-84.24377830000003,"I-75 Exit, Campbell, Tennessee 37847, United States",address,0.66358,ok
509,LOVES TRAVEL STOPS #256,"I-10, EXIT 140B",Van Horn,TX,640,3.649,31.03588557487156,-104.86542746374141,"I 10 Service Road, Van Horn, Texas 79855, United States",address,0.688889,ok
509,LOVES TRAVEL STOP #256,"I-10, EXIT 140B",Van Horn,TX,640,3.649,31.03588557487156,-104.86542746374141,"I 10 Service Road, Van Horn, Texas 79855, United States",address,0.688889,ok
522,GO MART FOOD STORE #57,"I-70 & ST-285, EXIT 186",Lore City                               ,OH,430,3.179,39.98320418924412,-81.4600770341774,"Lore City, Ohio, United States",municipality,0.594444,ok
523,CIRCLE K #2723322,"I-985, EXIT 20 & SR-60",Gainesville,GA,18,3.26566666,34.20655948834386,-83.77196329843832,"Gainesville Stone Lake, Georgia, United States",major_landform,0.489506,ok
525,FASTBREAK,US-45 ALT,West Point,MS,705,3.059,33.60601928747483,-88.66758039303323,"US Highway 45 Alternate, West Point, Mississippi 39773, United States",address,0.730159,ok
546,PLAZA 30,US-30,Wanatah,IN,365,3.499,41.43401458823286,-86.89617200238092,"W Us Highway 30, Wanatah, Indiana 46390, United States",address,0.873333,ok
557,SAPP BROS TRAVEL CENTER,"I-80, EXIT 73",Peru,IL,290,3.389,41.44046900000001,-90.30339989999999,"I-80, Henry, Illinois 61254, United States",address,0.670635,ok
557,SAPP BROS TRAVEL CENTER,"I-80, EXIT 73",Peru,IL,290,3.589,41.44046900000001,-90.30339989999999,"I-80, Henry, Illinois 61254, United States",address,0.670635,ok
557,SAPP BROS TRAVEL CENTER,"I-80, EXIT 73",Peru,IL,290,3.449,41.44046900000001,-90.30339989999999,"I-80, Henry, Illinois 61254, United States",address,0.670635,ok
557,SAPP BROS TRAVEL CENTER,"I-80, EXIT 73",Peru,IL,290,3.289,41.44046900000001,-90.30339989999999,"I-80, Henry, Illinois 61254, United States",address,0.670635,ok
559,SHELL MORGAN ROAD TRUCK STOP,"I-40, EXIT 142",Maumelle,AR,695,3.20733333,34.856613058517915,-92.40568600594997,"Maumelle, Arkansas, United States",municipality,0.607143,ok
566,TA GARY TRAVEL CENTER,"I-80/I-94, EXIT 6",Gary,IN,365,3.83066666,41.60209636871172,-87.33706466853619,"Gary, Indiana, United States",municipality,1,ok
567,TA ELOY TRAVEL CENTER,"I-10 & I-8, EXIT 203",Eloy,AZ,930,3.459,32.80820445874877,-111.60268611577271,"Eloy, Arizona, United States",municipality,0.564815,ok
572,PILOT TRAVEL CENTER #881,"I-69, EXIT 309A",Fort Wayne                              ,IN,370,3.899,41.07999005091303,-85.13860177248716,"Fort Wayne, Indiana, United States",municipality,0.638889,ok
572,PILOT TRAVEL CENTERS #881,"I-69, EXIT 309A",Fort Wayne                              ,IN,370,3.879,41.07999005091303,-85.13860177248716,"Fort Wayne, Indiana, United States",municipality,0.638889,ok
576,PETRO STOPPING CENTER #343,"I-10, EXIT 76",Egan,LA,600,3.624,30.236871453725318,-92.50596910715103,"Egan, Acadia Parish, United States",place,0.607143,ok
578,LOVES TRAVEL STOP #449,"I-84, EXIT 17",Troutdale,OR,935,3.779,45.34683436427743,-118.15571883693337,"I-84 Exit, Union, Oregon 97850, United States",address,0.734127,ok
579,FLYING J TRAVEL PLAZA #764,"I-80, EXIT 104 & US-191",Rock Springs,WY,835,3.67066666,41.586055910528835,-109.21945452690125,"Rock Springs, Wyoming, United States",municipality,0.594444,ok
586,AMERISTAR TRAVEL PLAZA #120,"I-82, EXIT 80",Prosser,WA,925,4.399,46.220581297905845,-119.79029975829587,"Prosser Rest Area, Prosser, Washington 99350, United States",address,0.619048,ok
586,AMERISTAR TRAVEL PLAZA #120,"I-82, EXIT 80",Prosser,WA,925,4.559,46.220581297905845,-119.79029975829587,"Prosser Rest Area, Prosser, Washington 99350, United States",address,0.619048,ok
588,TA TUSCALOOSA TRAVEL CENTER,"I-20/I-59, EXIT 77",Cottondale,AL,615,2.964,33.18956296437358,-87.45167043060064,"Cottondale, Tuscaloosa, United States",place,1,ok
591,TA Concordia Travel Plaza,"I-70, EXIT 58 & SR-23",Concordia,MO,400,3.22566666,38.982454229071436,-93.56850139796734,"Concordia, Missouri, United States",municipality,0.564815,ok
599,Sapp Bros Travel Center,"I-80, EXIT 59 & SR-17J",Sidney,NE,475,3.50066666,41.12806618365901,-102.9469255214612,"17J, Nebraska, United States",road,0.641975,ok
602,JIFFY MART EXIT 18 TRUCK STOP,"I-89/SR-120, EXIT 18 & SR-120",Lebanon,NH,12,3.599,43.64303206877039,-72.25158724933863,"Lebanon, New Hampshire, United States",municipality,0.537879,ok
614,TA MAYBROOK TRAVEL CENTER,"I-84, EXIT 5",Montgomery,NY,120,4.359,41.551689362093356,-74.20535384257437,"Twin Island Circle, Town of Montgomery, New York 12586, United States",address,0.618095,ok
628,KWIK FILL #227,"I-90,  EXIT 218",Geneva,OH,305,3.15233333,41.60336490153609,-81.4361219892001,"I 90, Willoughby Hills, Ohio 44094, United States",address,0.670635,ok
629,FLYING J #850,TCH-16,Edmonton,AB,80,4.39948962,36.984496199084354,-85.61887890432644,"Edmonton, Kentucky, United States",municipality,0.548148,ok
629,FLYING J #850,TCH-16,Edmonton,AB,80,4.39625375,36.984496199084354,-85.61887890432644,"Edmonton, Kentucky, United States",municipality,0.548148,ok
629,FLYING J #850,TCH-16,Edmonton,AB,80,4.40695023,36.984496199084354,-85.61887890432644,"Edmonton, Kentucky, United States",municipality,0.548148,ok
629,FLYING J #850,TCH-16,Edmonton,AB,80,4.40630048,36.984496199084354,-85.61887890432644,"Edmonton, Kentucky, United States",municipality,0.548148,ok
629,FLYING J #850,TCH-16,Edmonton,AB,80,4.39722401,36.984496199084354,-85.61887890432644,"Edmonton, Kentucky, United States",municipality,0.548148,ok
629,FLYING J #850,TCH-16,Edmonton,AB,80,4.3981947,36.984496199084354,-85.61887890432644,"Edmonton, Kentucky, United States",municipality,0.548148,ok
636,UNION 76,"I-5, EXIT 233 E",Albany,OR,935,3.379,44.636507319752376,-123.10593254864216,"Albany, Oregon, United States",municipality,0.583333,ok
651,ONE9 #1366,"I-40, EXIT 126 & US-641",Holladay,TN,460,2.98566666,35.773007602568775,-86.28200836479664,"Tennessee, United States",region,0.469136,ok
652,TA KNOXVILLE EAST TRAVEL CENTER,"I-40 & I-75, EXIT 374",Knoxville,TN,405,3.42566666,36.38248529999999,-84.24377830000003,"I-75 Exit, Campbell, Tennessee 37847, United States",address,0.66358,ok
659,FLYING J #869,HWY 2 SOUTH,Nanton,AB,50,4.39948962,48.25970140159385,-115.49038790000003,"Highway 2 S, Lincoln, Montana 59923, United States",address,0.666667,ok
659,FLYING J #869,HWY 2 SOUTH,Nanton,AB,50,4.59317483,48.25970140159385,-115.49038790000003,"Highway 2 S, Lincoln, Montana 59923, United States",address,0.666667,ok
659,FLYING J #869,HWY 2 SOUTH,Nanton,AB,50,4.59114784,48.25970140159385,-115.49038790000003,"Highway 2 S, Lincoln, Montana 59923, United States",address,0.666667,ok
659,FLYING J #869,HWY 2 SOUTH,Nanton,AB,50,4.60163996,48.25970140159385,-115.49038790000003,"Highway 2 S, Lincoln, Montana 59923, United States",address,0.666667,ok
659,FLYING J #869,HWY 2 SOUTH,Nanton,AB,50,4.59216111,48.25970140159385,-115.49038790000003,"Highway 2 S, Lincoln, Montana 59923, United States",address,0.666667,ok
659,FLYING J #869,HWY 2 SOUTH,Nanton,AB,50,4.60231851,48.25970140159385,-115.49038790000003,"Highway 2 S, Lincoln, Montana 59923, United States",address,0.666667,ok
669,PETRO STOPPING CENTER #350,"I-10,  EXIT 4",Canutillo,TX,640,3.499,29.618339838001436,-98.61345183163189,"Interstate 10 West, San Antonio, Texas 78256, United States",address,0.670635,ok
672,CROWN POINT TRUCK STOP,"I-295/US-130,EXIT 22",Thorofare,NJ,150,3.549,39.99718391552924,-74.99264238499393,"Burlington Pike, Cinnaminson Township, New Jersey 08077, United States",address,0.66071,ok
680,TA EXPRESS SUMMIT,"I-29, EXIT 207 & US-12",Summit,SD,566,3.20566666,45.342486571152094,-97.04579969590333,"Summit Township, United States",joint_municipality,0.52716,ok
684,7-ELEVEN #35101,"I-86/SR-17, EXIT 16",Randolph,NY,38,4.499,42.162005247098804,-78.97531729191542,"Randolph, Town of Randolph, United States",place,0.564815,ok
689,FLYING EAGLE,"I-235, EXIT 4",Wichita,KS,570,3.499,38.48365951819111,-101.3559776272727,"E I Street, Leoti, Kansas 67861, United States",address,0.665238,ok
692,BP,US-63,Ottumwa,IA,489,3.399,41.055550752827,-92.41125026841598,"State Highway 149, Ottumwa, Iowa 52501, United States",address,0.873333,ok
739,Arco #364420,US-23,Greenup,KY,255,3.649,38.545366427469936,-82.75918258376402,"US Highway 23, Greenup, Kentucky 41144, United States",address,0.936667,ok
748,QUIKTRIP #4231,US-85,Evans,CO,800,3.17233333,39.126162880344644,-105.05933608268407,"US 85 (super), Colorado, United States",road,0.708889,ok
769,AYERCO #26,US-61/US-136,Alexandria,MO,345,3.01566666,40.35948870595763,-91.45543232560158,"Alexandria, Missouri, United States",municipality,0.505952,ok
815,Kwik Trip #1508,"US-18/SR-151, EXIT 58",Barneveld,WI,420,3.489,43.007600042069626,-88.89368844230262,"US Highway 18, Town of Jefferson, Wisconsin 53538, United States",address,0.614198,ok
855,SPEEDWAY #7459,US-41 & SR-137,North Chicago,IL,293,3.379,42.32772419661055,-87.83941894769669,"North Chicago, Illinois, United States",municipality,0.638889,ok
855,SPEEDWAY #7459,US-41 & SR-137,North Chicago,IL,293,3.499,42.32772419661055,-87.83941894769669,"North Chicago, Illinois, United States",municipality,0.638889,ok
855,SPEEDWAY #7459,US-41 & SR-137,North Chicago,IL,293,3.289,42.32772419661055,-87.83941894769669,"North Chicago, Illinois, United States",municipality,0.638889,ok
863,Ocean Fuel,US-301/SR-73,Sylvania,GA,195,3.499,40.74459922062232,-110.13276320095054,"WR-73, Utah, United States",major_landform,0.52963,ok
906,PILOT TRAVEL CENTERS #429,"I-40, EXIT 280",West Memphis,AR,435,3.499,35.14647992068686,-90.18453899770975,"West Memphis, Arkansas, United States",municipality,0.638889,ok
906,PILOT TRAVEL CENTER #429,"I-40, EXIT 280",West Memphis,AR,435,3.291,35.14647992068686,-90.18453899770975,"West Memphis, Arkansas, United States",municipality,0.638889,ok
908,CIRCLE K #2704888,"I-65, EXIT 246 & SR-119",Pelham,AL,615,3.46566666,33.28566903436404,-86.80998846888542,"Pelham, Alabama, United States",municipality,0.564815,ok
912,PETRO STOPPING CENTER #319,"I-20/59,  EXIT 100",Mc Calla,AL,615,3.12566666,34.0492656653928,-85.54857138544321,"Exie, Cherokee, United States",place,0.559028,ok
936,CASEYS #4254,"I-40, EXIT 129",Conway,AR,695,3.03233333,35.15174254203251,-92.55406429991126,"Menifee I- 40 Access Highway, Menifee, Arkansas 72127, United States",address,0.785714,ok
970,CIRCLE K #2702885,"I-17/SR-60, EXIT 199A",Phoenix,AZ,930,3.39233333,33.033004,-111.379865,"199 N Phoenix Street, Florence, Arizona 85132, United States",address,0.566667,ok
977,PILOT TRAVEL CENTER #328,"I-10, EXIT 17",Quartzsite,AZ,930,3.959,33.66699037966683,-114.21681024134159,"Quartzsite, Arizona, United States",municipality,0.607143,ok
977,PILOT TRAVEL CENTERS #328,"I-10, EXIT 17",Quartzsite,AZ,930,3.959,33.66699037966683,-114.21681024134159,"Quartzsite, Arizona, United States",municipality,0.607143,ok
981,STINKER #85,"I-15, EXIT 93",Blackfoot,ID,825,3.53233333,43.30289234811381,-112.26939239214681,"I-15 Northbound, Bingham, Idaho 83221, United States",address,0.666667,ok
982,CIRCLE K #2701948,"I-8, EXIT 7 & SR-195",Yuma,AZ,900,3.56566666,32.72542176807933,-114.61980912834406,"Yuma, Arizona, United States",municipality,0.564815,ok
1028,FOUR STATES TRUCK STOP,"I-495, EXIT 4 & SR-9",New Castle,DE,243,3.449,39.66205736984415,-75.56631345301867,"New Castle, Delaware, United States",municipality,0.594444,ok
1028,FOUR STATES TRUCK STOP,"I-495, EXIT 4 & SR-9",New Castle,DE,243,3.399,39.66205736984415,-75.56631345301867,"New Castle, Delaware, United States",municipality,0.594444,ok
1042,Union 76,US-441 & SR-100A,Lake City,FL,75,3.56233333,29.939862599999984,-82.79689229999997,"Lake City, Suwannee, United States",place,0.638889,ok
1043,ONE9 #1401,I-75 EXIT 414  & US-41,Lake City,FL,75,3.259,30.131230399999993,-82.98437469999999,"Lake City, Suwannee, United States",place,0.594444,ok
1043,SHELL DBA ONE9 #1401,I-75 EXIT 414  & US-41,Lake City,FL,75,3.244,30.131230399999993,-82.98437469999999,"Lake City, Suwannee, United States",place,0.594444,ok
1047,TA MARIANNA TRAVEL CENTER,"I-10/SR-8, EXIT 142 & SR-71",Marianna,FL,20,3.60733333,30.774359779248865,-85.2268736064434,"Marianna, Florida, United States",municipality,0.537879,ok
1075,PILOT TRAVEL CENTER #68,"I-16 /SR-404, EXIT 51 & US-441",Dublin,GA,85,3.43233333,32.54044491467591,-82.90375404059887,"Dublin, Georgia, United States",municipality,0.537879,ok
1075,PILOT TRAVEL CENTERS #68,"I-16 /SR-404, EXIT 51 & US-441",Dublin,GA,85,3.399,32.54044491467591,-82.90375404059887,"Dublin, Georgia, United States",municipality,0.537879,ok
1106,CIRCLE K #2705367,"I-20, EXIT 172",Thomson,GA,16,3.399,33.46632494526269,-82.50260923057795,"Thomson, Georgia, United States",municipality,0.607143,ok
1112,BC AMPRIDE TRUCK PLAZA,US-59/SR-141,Denison,IA,527,3.399,42.017771999205955,-95.35532869398594,"Denison, Iowa, United States",municipality,0.607143,ok
1115,KWIK STAR #704,SR-57/SR-14,Parkersburg,IA,565,3.58233333,43.130979381966746,-93.3715417343509,"South 14th Street, Clear Lake, Iowa 50428, United States",address,0.649315,ok
1121,TRAVELERS OASIS,"I-84, EXIT 182",Eden,ID,787,3.799,42.60530917188062,-114.20908869963307,"Eden, Idaho, United States",municipality,0.607143,ok
1128,TA CHICAGO NORTH TRAVEL CENTER,"I-94/US-41, EXIT 1",Wadsworth,IL,444,3.819,42.42867891607853,-87.90672495961189,"Wadsworth, Illinois, United States",municipality,0.564815,ok
1128,TA CHICAGO NORTH TRAVEL CENTER,"I-94/US-41, EXIT 1",Wadsworth,IL,444,3.879,42.42867891607853,-87.90672495961189,"Wadsworth, Illinois, United States",municipality,0.564815,ok
1128,TA CHICAGO NORTH TRAVEL CENTER,"I-94/US-41, EXIT 1",Wadsworth,IL,444,3.779,42.42867891607853,-87.90672495961189,"Wadsworth, Illinois, United States",municipality,0.564815,ok
1128,TA CHICAGO NORTH TRAVEL CENTER,"I-94/US-41, EXIT 1",Wadsworth,IL,444,3.769,42.42867891607853,-87.90672495961189,"Wadsworth, Illinois, United States",municipality,0.564815,ok
1132,SPEEDWAY #7423,"I-57, EXIT 83",Ina,IL,293,3.249,41.99568827536928,-88.23096530511975,"Nina, Bartlett, Illinois 60103, United States",address,0.646042,ok
1136,PILOT TRAVEL CENTER #171,"I-74, EXIT 206",Oakwood,IL,280,3.399,40.116147334173654,-87.77835946530104,"Oakwood, Illinois, United States",municipality,0.607143,ok
1136,PILOT TRAVEL CENTER #171,"I-74, EXIT 206",Oakwood,IL,280,3.499,40.116147334173654,-87.77835946530104,"Oakwood, Illinois, United States",municipality,0.607143,ok
1136,PILOT TRAVEL CENTER #171,"I-74, EXIT 206",Oakwood,IL,280,3.599,40.116147334173654,-87.77835946530104,"Oakwood, Illinois, United States",municipality,0.607143,ok
1140,CIRCLE K #4701398,"I-55, EXIT 82 & SR-104",Divernon,IL,280,3.499,39.565608291562945,-89.65731929987669,"Divernon, Illinois, United States",municipality,0.564815,ok
1149,PILOT TRAVEL CENTER #30,"I-70, EXIT 96",Greenfield,IN,375,3.959,39.809611800000006,-85.94346180000002,"W I-70, Hancock, Indiana 46140, United States",address,0.714286,ok
1149,PILOT TRAVEL CENTERS #30,"I-70, EXIT 96",Greenfield,IN,375,3.959,39.809611800000006,-85.94346180000002,"W I-70, Hancock, Indiana 46140, United States",address,0.714286,ok
1151,SPEEDWAY #8061,"I-70, EXIT 115 & SR-109",Knightstown,IN,375,3.759,39.795600920406535,-85.52636303007603,"Knightstown, Indiana, United States",municipality,0.564815,ok
1154,CIRCLE K #2704691,SR-71 & CR-214,Cedar Creek,TX,595,3.199,30.169259390658215,-97.5304579814748,"Tucker Hill Lane, Bastrop, Texas 78612, United States",address,0.777778,ok
1156,CIRCLE K #4700028,"I-74/US-421, EXIT 116 & SR-44",Shelbyville,IN,375,3.599,39.521437392910244,-85.7769239321351,"Shelbyville, Indiana, United States",municipality,0.537879,ok
1157,One9 #297,"I-70, EXIT 11 & SR-46",Terre Haute                             ,IN,510,3.43566666,39.46670268163649,-87.41391196846962,"Terre Haute, Indiana, United States",municipality,0.594444,ok
1158,PILOT TRAVEL CENTERS #36,US-30  & SR-49,Valparaiso,IN,365,3.869,41.4517018,-87.02511529999998,"US 30, Valparaiso, Indiana 46383, United States",address,0.761905,ok
1158,PILOT TRAVEL CENTER #36,US-30  & SR-49,Valparaiso,IN,365,3.859,41.4517018,-87.02511529999998,"US 30, Valparaiso, Indiana 46383, United States",address,0.761905,ok
1163,SHORT STOP #13,US-54,Emporia,KS,553,2.839,37.62285497650604,-99.02138601568004,"Cannonball Stageline, Kiowa Rural Township, Kansas 67059, United States",address,0.772222,ok
1176,PILOT TRAVEL CENTERS #353,"I-75, EXIT 129",Georgetown,KY,410,3.20566666,38.20998375561884,-84.55971300601959,"Georgetown, Kentucky, United States",municipality,0.607143,ok
1179,PILOT TRAVEL CENTERS #399,"I-65, EXIT 105",Lebanon Junction,KY,415,3.609,37.8351178096005,-85.72486058117863,"Lebanon Junction, Kentucky, United States",municipality,0.638889,ok
1196,SOUTHERN BELLE TRUCK STOP,US-61 & SR-964,Saint Francisville,LA,725,3.384,30.780724664965,-91.3763353228569,"St. Francisville, Louisiana, United States",municipality,0.638889,ok
1199,ALLTOWN MARKETS #306,"I-190, EXIT 7",Leominster,MA,178,3.68233333,42.52674452697305,-71.76148932427168,"Leominster, Massachusetts, United States",municipality,0.607143,ok
1202,ONE9 #290,"I-95, EXIT 93 & SR-222",Perryville,MD,22,3.599,39.559419120525476,-76.07322547584772,"Perryville, Maryland, United States",municipality,0.564815,ok
1204,PETRO STOPPING CENTER #321,"I-70 & I-57, EXIT 159",Effingham,IL,574,3.549,39.12014351736453,-88.54348003864288,"Effingham, Illinois, United States",municipality,0.564815,ok
1204,PETRO STOPPING CENTER #321,"I-70 & I-57, EXIT 159",Effingham,IL,574,3.349,39.12014351736453,-88.54348003864288,"Effingham, Illinois, United States",municipality,0.564815,ok
1204,PETRO STOPPING CENTER #321,"I-70 & I-57, EXIT 159",Effingham,IL,574,3.439,39.12014351736453,-88.54348003864288,"Effingham, Illinois, United States",municipality,0.564815,ok
1204,PETRO STOPPING CENTER #321,"I-70 & I-57, EXIT 159",Effingham,IL,574,3.399,39.12014351736453,-88.54348003864288,"Effingham, Illinois, United States",municipality,0.564815,ok
1208,D AVENUE FUEL PLAZA,US-131,Kalamazoo,MI,465,3.499,42.240946202339515,-85.63927646294019,"US-131, Portage, Michigan 49024, United States",address,1,ok
1208,D AVENUE FUEL PLAZA,US-131,Kalamazoo,MI,465,3.099,42.240946202339515,-85.63927646294019,"US-131, Portage, Michigan 49024, United States",address,1,ok
1210,ROADHAWK TRAVEL CENTER,"I-94, EXIT 56 & SR-51",Paw Paw                                 ,MI,465,3.599,42.217817103267144,-85.89112468063831,"Paw Paw, Michigan, United States",municipality,0.594444,ok
1210,ROADHAWK TRAVEL CENTER,"I-94, EXIT 56 & SR-51",Paw Paw                                 ,MI,465,3.559,42.217817103267144,-85.89112468063831,"Paw Paw, Michigan, United States",municipality,0.594444,ok
1217,KWIK TRIP #250,"I-90, EXIT 179",Austin,MN,515,3.374,43.66034549999998,-93.11494849999997,"I-90, Oakland Township, Minnesota 56007, United States",address,0.674603,ok
1218,CASEYS #3658,SR-210,Pillager,MN,522,3.299,46.3263820286395,-94.47492308914661,"Pillager, Minnesota, United States",municipality,0.683333,ok
1225,AYERCO #35,US-61 & US-61 BUS,Bowling Green,MO,494,3.01566666,39.347827852916474,-91.20676942169666,"US-61 BUS, Bowling Green, Missouri 63334, United States",address,0.709877,ok
1234,Lamar Travel Plaza,US-71 & US-160,Lamar,MO,416,3.199,37.49505283988773,-94.27687380462885,"Lamar, Missouri, United States",municipality,0.607143,ok
1236,AYERCO #44,US-36 & US-24,Palmyra,MO,494,3.01566666,39.799221186131774,-91.52367509901524,"Palmyra, Missouri, United States",municipality,0.607143,ok
1240,TEMP STOP #103,US-65,Sedalia,MO,400,3.199,37.39187481605105,-92.75749749241106,"US 65 (super), Missouri, United States",road,0.708889,ok
1247,SNAPPY MART #11,US-63 & SR-14,West Plains,MO,535,3.299,36.72816545473879,-91.85257561504841,"West Plains, Missouri, United States",municipality,0.638889,ok
1251,MAPCO #3009,US-72,Corinth,MS,435,3.154,34.91860812314956,-88.50955974150588,"US-72, Corinth, Mississippi 38834, United States",address,1,ok
1256,DOUBLE QUICK #89,US-82/US-278,Greenville,MS,655,3.25566666,33.41110537291838,-91.0635857284069,"Greenville, Mississippi, United States",municipality,0.607143,ok
1265,JOE JOES TRAVEL CENTER,US-78 & RED BANKS RD S,Red Banks,MS,435,2.97233333,34.423572591786055,-89.3863260396729,"78, Mississippi, United States",major_landform,0.55,ok
1304,LOVES TRAVEL STOP #667,"I-85, EXIT 152",Mebane,NC,65,3.94733333,36.08990750078979,-79.27389040631817,"Mebane, North Carolina, United States",municipality,0.607143,ok
1315,CIRCLE K #2720218,US-421 BUS & US-15/US-501/US-1,Sanford,NC,177,3.08233333,35.67296391968335,-79.03929200023413,"North Carolina, United States",region,0.444444,ok
1325,SCOTCHMAN #3303,US-421 & US-74,Wilmington,NC,245,3.629,35.332932486054126,-81.82835821062326,"US-74, Rutherford, North Carolina 28018, United States",address,0.730833,ok
1326,SPEEDWAY #7949,US-301/US-264 ALT & CR-1674,Wilson,NC,205,3.199,35.604504371786625,-77.65104934573174,"US-264 Alt, Greene, North Carolina 27828, United States",address,0.597111,ok
1333,PUMP & PANTRY #15,US-30,Grand Island,NE,330,3.30733333,40.93465859786308,-98.31181884769228,"Us Highway 30 E, Grand Island, Nebraska 68801, United States",address,0.885185,ok
1340,BORDENTOWN VALERO,"NJ TNPK, EXIT 7 & US-206",Bordentown,NJ,230,3.499,40.80101067098521,-74.81623515927589,"Liebenzell USA Pond, New Jersey, United States",major_landform,0.479506,ok
1342,Delta,"I-80, EXIT 47B",Fairfield,NJ,115,3.20233333,40.887507872175256,-74.23886711276282,"Island Avenue, Little Falls, New Jersey 07424, United States",address,0.625079,ok
1344,BOLLA TRUCK STOP #193,US-202 & SR-17,Mahwah,NJ,115,3.53233333,41.09726438580056,-74.15980184399871,"State Route 17 South, Mahwah, New Jersey 07430, United States",address,0.714286,ok
1348,GLOBAL,SR-73,Palmyra,NJ,150,3.359,39.937479673087566,-74.9681890654116,"Sr 73 N, Maple Shade Township, New Jersey 08052, United States",address,0.822778,ok
1356,LOVES TRAVEL STOP #257,"I-40 & HORIZON, EXIT 79",Milan,NM,580,3.59066666,35.18851333845242,-107.89264556173862,"Milan, New Mexico, United States",municipality,0.583333,ok
1364,7- ELEVEN #40507,"I-80/I-90, MM 56 WB",Rolling Prairie,IN,465,3.98233333,41.67454964612617,-86.61601949483156,"Rolling Prairie, LaPorte, United States",place,0.578283,ok
1372,PILOT TRAVEL CENTER #469,"I-77, EXIT 101 & SR-627",Canton,OH,249,3.62233333,40.808089721978796,-81.36773035516683,"Canton, Ohio, United States",municipality,0.564815,ok
1376,FUEL MART #782,"I-75, EXIT 118",Lima                                    ,OH,411,3.08566666,36.38248529999999,-84.24377830000003,"I-75 Exit, Campbell, Tennessee 37847, United States",address,0.683439,ok
1379,TA LODI TRAVEL CENTER,"I-71, EXIT 209 & I-76/US-224, EXIT 1",Seville,OH,305,3.739,41.01007719633436,-81.86222244054079,"Seville, Ohio, United States",municipality,0.519231,ok
1384,SUNOCO,"I-80/I-90, EXIT 13 & US-20ALT/SR-15",Montpelier,OH,550,3.41566666,41.467811836182,-81.52034380463311,"#15 Creek, Ohio, United States",major_landform,0.484615,ok
1391,ONCUE EXPRESS #2045,"I-35, EXIT 203 & SR-15",Billings,OK,500,3.21566666,36.531363710104785,-97.43459583361982,"Billings, Oklahoma, United States",municipality,0.564815,ok
1395,DOMINO FOOD AND FUEL #1,"I-40, EXIT 66",Clinton                                 ,OK,483,3.099,35.51560585466641,-98.96730702370405,"Clinton, Oklahoma, United States",municipality,0.607143,ok
1404,ONE9 #339,"I-74, EXIT 4 & SR-63",Covington,IN,375,3.26233333,40.137034747473315,-87.39708881825209,"Covington, Indiana, United States",municipality,0.564815,ok
1414,SAC SHOP #507,"I-70, EXIT 12/161",Breezewood                              ,PA,14,4.099,39.99901203596147,-78.24042219668627,"Breezewood, East Providence Township, United States",place,0.607143,ok
1424,GETTYSBURG TRAVEL PLAZA,US-15 & SR-394,Gettysburg,PA,70,3.899,39.90854126573978,-77.24778826201964,"Gettysburg, Butler Township, United States",place,0.607143,ok
1428,CIRCLE K #4702408,"I-65, EXIT 168 & SR-38/SR-25",Lafayette,IN,375,3.43233333,40.41912308376705,-86.89190112054348,"Lafayette, Indiana, United States",municipality,0.537879,ok
1432,KWIK FILL #259,"I-81, EXIT 57",Mechanicsburg                           ,PA,70,4.049,40.21019729740828,-77.004727832973,"Mechanicsburg, Pennsylvania, United States",municipality,0.607143,ok
1444,PILOT TRAVEL CENTERS #346,"I-20, EXIT 92 & US-601",Lugoff,SC,135,3.43233333,33.68743889868588,-80.43637454509735,"South Carolina, United States",region,0.469136,ok
1445,PILOT TRAVEL CENTERS #402,"I-80, EXIT 367",Cheyenne,WY,795,3.709,41.11633094902518,-104.82384976174092,"Pedestrian & Bike Bridge over I-80, Cheyenne, Wyoming 82007, United States",address,0.619048,ok
1447,HOT SPOT #3005,US-221,Chesnee,SC,210,3.199,34.26138443698995,-82.08671644892286,"US 221, Greenwood, South Carolina 29649, United States",address,0.772222,ok
1453,EXPRESS STOP,US-278/SR-101/SR-6 & SR-113,Rockmart,GA,193,3.319,34.002600741795646,-85.04161342978477,"Rockmart, Georgia, United States",municipality,0.537879,ok
1455,PETRO FLORENCE,"I-95, EXIT 169",Florence,SC,46,3.32566666,34.19844374687004,-79.76716607809067,"Florence, South Carolina, United States",municipality,0.607143,ok
1461,CIRCLE K #2705370,"I-26, EXIT 15 & US-176",Inman,SC,210,3.099,35.0476847371642,-82.09190756063958,"Inman, South Carolina, United States",municipality,0.564815,ok
1464,CIRCLE K #2723254,"I-20, EXIT 55 & SR-6",Lexington,SC,135,3.199,33.98790884954551,-81.22102579056536,"Lexington, South Carolina, United States",municipality,0.564815,ok
1470,CIRCLE K #2705348,US-1,Beech Island,SC,135,3.159,33.42806516406467,-81.88915852457285,"Beech Island, Aiken, United States",place,0.712963,ok
1479,TA SPARTANBURG TRAVEL CENTER,"I-85, EXIT 63 & SR-290",Duncan,SC,210,3.43233333,33.68743889868588,-80.43637454509735,"South Carolina, United States",region,0.469136,ok
1487,ROADRUNNER MARKET #6019,"I-81, EXIT 36 NORTH",Greeneville                             ,TN,405,3.499,36.16319836950011,-82.83104673027992,"Greeneville, Tennessee, United States",municipality,0.583333,ok
1492,MAPCO #3538,"I-24, EXIT 174",Chattanooga,TN,285,2.899,34.988988,-85.48618999999997,"24 I-, Marion, Tennessee 37396, United States",address,0.670635,ok
1507,CIRCLE K #4703941,"I-55, EXIT 5A",Memphis,TN,435,3.189,35.147762,-90.05841299999997,"55 Island Drive, Memphis, Tennessee 38103, United States",address,0.714286,ok
1516,LOVES TRAVEL STOP #261,I-27 EXIT 116,Amarillo,TX,585,3.23233333,35.20729014949997,-101.8371194601059,"Amarillo, Texas, United States",municipality,0.607143,ok
1531,CircleK #4702365,"I-74, EXIT 112 & SR-9",Shelbyville,IN,375,3.509,39.521437392910244,-85.7769239321351,"Shelbyville, Indiana, United States",municipality,0.564815,ok
1533,YESWAY #1157,US-62,Brownfield,TX,700,2.99233333,33.88919541748696,-101.36040518661105,"US 62, Floyd, Texas 79235, United States",address,0.772222,ok
1546,SHELL,"I-35, EXIT 86 & SR-85",Dilley,TX,740,3.099,28.67420124736932,-99.18250093991173,"I-35 Access Road East, Dilley, Texas 78017, United States",address,0.607407,ok
1548,TOOT N TOTUM #107,US-287,Dumas,TX,585,3.03233333,36.021312490973635,-101.99642055978086,"US Highway 287, Moore, Texas 79029, United States",address,0.936667,ok
1552,STRIPES #40911,US-59 & SR-16,Freer,TX,625,3.099,27.878130751421597,-98.61420962959528,"Freer, Texas, United States",municipality,0.607143,ok
1555,SEIBERT TRAVEL PLAZA,"I-70, EXIT 405 & SR-59",Seibert,CO,800,3.499,39.300990095532654,-102.86961436271667,"Seibert, Colorado, United States",municipality,0.564815,ok
1560,CATTREZ,US-20 & SR-5,Irving,NY,38,2.899,42.5675591367393,-79.11281704902649,"Irving, Town of Hanover, United States",place,0.607143,ok
1560,CATTREZ,US-20 & SR-5,Irving,NY,38,2.999,42.5675591367393,-79.11281704902649,"Irving, Town of Hanover, United States",place,0.607143,ok
1562,I MART #108,"I-40, EXIT 108",Wildersville                            ,TN,435,3.099,35.773007602568775,-86.28200836479664,"Tennessee, United States",region,0.497354,ok
1567,KUM & GO #4110,"I-235, EXIT 11",Des Moines,IA,320,3.02733333,41.593958642942695,-93.55199302998813,"Rock Island Avenue, Des Moines, Iowa 50317, United States",address,0.687556,ok
1579,FLYING J TRAVEL PLAZA #924- TOWN PUMP,"I-15, EXIT 122 & I-90 MM220",Butte                                   ,MT,816,3.56566666,46.01315057948293,-112.53650821745396,"Butte, Montana, United States",municipality,0.55,ok
1582,LOVES TRAVEL STOP #250,I-40 EXIT 60,Amarillo,TX,585,3.314,35.19363597474468,-101.72512529664039,"I-40, Amarillo, Texas 79118, United States",address,0.761905,ok
1585,Stripes 7Fleet #42498,US-385 & CR-1910,Andrews,TX,710,3.369,32.422399565146506,-102.58027773964989,"North US Highway 385, Andrews, Texas 79714, United States",address,0.833333,ok
1590,ROAD RANGER #240,"I-80 & I-94, EXIT 15-A",Lake Station,IN,365,3.559,41.57503700730708,-87.23892465233803,"Lake Station, Indiana, United States",municipality,0.578283,ok
1596,FLYING J #305,"I-40, EXIT 39",Jamestown,NM,580,3.44233333,35.480870669535165,-108.43306571245193,"Exit 39, McKinley, New Mexico 87347, United States",address,0.822381,ok
1597,7-ELEVEN #36156,"I-70 & SR-519, EXIT 25/333",Eighty Four,PA,165,4.999,40.19209184506161,-80.13829231456953,"Sister 519, North Strabane Township, Pennsylvania 15330, United States",address,0.753111,ok
1599,ONVO TRAVEL PLAZA,"I-81, EXIT 10",Mc Graw,NY,220,3.439,42.58416799911848,-76.08506601695956,"Mc Graw, Town of Cortlandville, United States",place,0.638889,ok
1599,ONVO TRAVEL PLAZA,"I-81, EXIT 10",Mc Graw,NY,220,3.459,42.58416799911848,-76.08506601695956,"Mc Graw, Town of Cortlandville, United States",place,0.638889,ok
1602,CIRCLE K #2723387,US-98,Beaumont,MS,620,3.56566666,30.914762215925172,-88.49056608974934,"US-98, George, Mississippi 39452, United States",address,0.772222,ok
1606,DONNAS TRAVEL PLAZA,"I-5, EXIT 202",Marysville,WA,962,4.559,48.080940675251604,-122.15617111964372,"Marysville, Washington, United States",municipality,0.607143,ok
1610,TA BALTIMORE TRAVEL CENTER,"I-95, EXIT 57",Baltimore                               ,MD,22,4.759,39.32710085633358,-76.36724880190343,"Carroll Island Road, Baltimore, Maryland 21220, United States",address,0.831905,ok
1618,GO MART FOOD STORE #33,US-33,Ripley                                  ,WV,44,3.499,39.313926981859545,-81.31223584249739,"US 33 (super), West Virginia, United States",road,0.708889,ok
1621,CIRCLE K #2709337,"I-65, EXIT 262B",Birmingham                              ,AL,615,3.489,33.6020421,-86.80890299999999,"I 65, Fultondale, Alabama 35068, United States",address,0.674603,ok
1622,RACEWAY #6973,US-380 & SR-114/SR-101,Bridgeport,TX,630,2.78233333,33.21011560175524,-97.75475542992353,"Bridgeport, Texas, United States",municipality,0.564815,ok
1623,SAPP BROS TRAVEL CENTER,"I-70 & I-270, EXIT 278",Commerce City,CO,800,3.389,39.80831969478141,-104.93386756628752,"Commerce City, Colorado, United States",municipality,0.594444,ok
1625,PILOT TRAVEL CENTERS #60,"I-26, EXIT 159",Bowman                                  ,SC,42,3.43233333,33.34846019934407,-80.68488119640307,"Bowman, South Carolina, United States",municipality,0.607143,ok
1632,PILOT TRAVEL CENTERS #266,"I-10, EXIT 139 & SR-292",Las Cruces                              ,NM,640,3.19066666,18.39413547549261,-65.9845445305109,"Las Cruces, Carolina, United States",place,0.596296,ok
1633,7-ELEVEN #36302,"I-35, EXIT 144",Von Ormy,TX,740,3.109,29.286868230690306,-98.64821467548609,"Von Ormy, Texas, United States",municipality,0.638889,ok
1634,PILOT TRAVEL CENTERS #40,"I-94, EXIT 322",Oak Creek,WI,444,3.889,42.8987291541059,-87.91779678314924,"Oak Creek, Wisconsin, United States",municipality,0.638889,ok
1644,ALLSUPS CONVENIENCE STORE #2414,"I-20, EXIT 235",Roscoe,TX,575,2.929,32.60048090167876,-98.12393670403458,"I-20, Palo Pinto, Texas 76472, United States",address,0.670635,ok
1646,SPEEDWAY #8310,US-6  & US-31,Plymouth,IN,465,3.609,39.7355533528719,-85.9801265783608,"Stream 6, Indiana, United States",major_landform,0.52619,ok
1647,SPEEDWAY #8305,US-41 & SR-312,Hammond,IN,290,3.76566666,41.49714216228277,-87.47111758436768,"US Highway 41, Schererville, Indiana 46375, United States",address,0.626984,ok
1653,ROAD RANGER #187,"I-55, EXIT 289",Chicago,IL,520,3.569,41.6179251820831,-88.16255814089271,"I-55, Romeoville, Illinois 60446, United States",address,0.670635,ok
1653,ROAD RANGER #187,"I-55, EXIT 289",Chicago,IL,520,3.599,41.6179251820831,-88.16255814089271,"I-55, Romeoville, Illinois 60446, United States",address,0.670635,ok
1654,CEFCO #3,US-77/US190/SR-36,Cameron,TX,670,2.989,26.14542122790654,-97.63553749477882,"US 77, San Benito, Texas 78586, United States",address,0.722222,ok
1661,CHEVRON,"I-20, EXIT 101 & SR-151",Calhoun,LA,590,3.159,34.05369110515695,-118.24276607483625,"Los Angeles, California, United States",municipality,0.469136,ok
1669,BETTY BEAVERS TRUCKSTOP,"I-90, EXIT 28",Fultonville,NY,12,3.149,42.68473694620896,-73.78860108306662,"I-90 Dam, New York, United States",major_landform,0.61746,ok
1669,BETTY BEAVERS TRUCKSTOP,"I-90, EXIT 28",Fultonville,NY,12,3.189,42.68473694620896,-73.78860108306662,"I-90 Dam, New York, United States",major_landform,0.61746,ok
1670,Petro Stopping Center #54,"I-44, EXIT 4 & SR-3",Joplin,MO,277,3.449,37.08418406471453,-94.51333869248629,"Joplin, Missouri, United States",municipality,0.564815,ok
1671,LOVES TRAVEL STOP #412,"I-95, EXIT 77",Dunn,NC,205,3.699,36.54122925587259,-77.57978707551956,"I-95, Northampton, North Carolina 27866, United States",address,0.670635,ok
1672,HANA TRAVEL PLAZA,"I-40,  EXIT 77",Amarillo,TX,585,2.899,35.19363597474468,-101.72512529664039,"I-40, Amarillo, Texas 79118, United States",address,0.761905,ok
1699,ALLENS FOOD MART280,US-280/US-231/SR-53/SR-38 & CR-8/CR-34,Sylacauga,AL,615,3.799,42.27069630630311,-71.55094694141093,"Cr #8, Massachusetts, United States",major_landform,0.449259,ok
1700,TOPPS FUEL STOPS,US-259/SR-49,Daingerfield,TX,723,3.109,32.13615851983776,-94.78741605227145,"US 259 South, Henderson, Texas 75654, United States",address,0.715829,ok
1720,TOOT N TOTUM #120,US-54 & S WESTERN AVE,Liberal,KS,585,3.01566666,37.03360288210155,-100.94036504166667,"S Western Avenue, Liberal, Kansas 67901, United States",address,0.83,ok
1749,HIGHWAY 96 FUEL STOP,US-96 & SR-62/FM-1004,Buna                                    ,TX,610,3.149,31.263890659238534,-98.54561179876328,"Texas, United States",region,0.469136,ok
1753,PWI #169,"I-35/US-77, EXIT 359 & CR-1304",Abbott,TX,765,2.899,29.72280849893325,-95.78201697165633,"Lake I, Texas, United States",major_landform,0.50202,ok
1773,M-46 AUTO TRUCK PLAZA,"US-131, EXIT 120 & SR-46",Howard City,MI,344,3.199,43.3955830678938,-85.4678151011467,"Howard City, Michigan, United States",municipality,0.594444,ok
1773,M-46 AUTO TRUCK PLAZA,"US-131, EXIT 120 & SR-46",Howard City,MI,344,3.599,43.3955830678938,-85.4678151011467,"Howard City, Michigan, United States",municipality,0.594444,ok
1773,M-46 AUTO TRUCK PLAZA,"US-131, EXIT 120 & SR-46",Howard City,MI,344,3.099,43.3955830678938,-85.4678151011467,"Howard City, Michigan, United States",municipality,0.594444,ok
1791,PILOT TRAVEL CENTERS #257,"I-20, EXIT 126 & FM-1788",Midland                                 ,TX,710,3.56566666,31.997366408473802,-102.07794830203056,"Midland, Texas, United States",municipality,0.564815,ok
1807,LOVES TRAVEL STOP #229,I-40 EXIT 96 & SR-207,Panhandle,TX,585,3.314,35.34546392935544,-101.38065710663795,"Panhandle, Texas, United States",municipality,0.564815,ok
1810,KENT KWIK #804,US-83,Perryton,TX,585,2.999,32.2271493105791,-99.75981012854055,"US 83, Taylor, Texas 79562, United States",address,0.772222,ok
1829,PILOT TRAVEL CENTERS #96,"SR- 60 & FL TURNPIKE, EXIT 193",Okeechobee,FL,143,3.719,27.392340959303464,-80.88736552745104,"Okeechobee, Florida, United States",county,0.564815,ok
1829,PILOT TRAVEL CENTER #96,"SR- 60 & FL TURNPIKE, EXIT 193",Okeechobee,FL,143,3.699,27.392340959303464,-80.88736552745104,"Okeechobee, Florida, United States",county,0.564815,ok
1832,CORNER FUEL CENTER,US-49,Hattiesburg,MS,620,3.299,31.28330167621053,-89.2937930886144,"US 49, Hattiesburg, Mississippi 39401, United States",address,1,ok
1834,PUMP N PANTRY #15,"I-20, EXIT 617 & US-59",Marshall,TX,766,2.899,31.944491535297733,-105.85667058082538,"I Tank, Texas, United States",major_landform,0.489506,ok
1849,Stripes #42457,US-67/US-277,San Angelo,TX,740,3.244,31.49877507853799,-100.37432453909429,"US-67, San Angelo, Texas 76905, United States",address,0.777778,ok
1855,EXIT 76 AUTO TRUCK PLAZA,US-131,Byron Center,MI,344,3.499,42.77986069999999,-85.66875019999998,"Nb Us 131 Highway, Byron Township, Michigan 49315, United States",address,0.885185,ok
1858,FLYING J TRAVEL PLAZA #737,"I-10, EXIT 583",San Antonio                             ,TX,740,3.224,29.618339838001436,-98.61345183163189,"Interstate 10 West, San Antonio, Texas 78256, United States",address,0.777778,ok
1859,GO MART FOOD STORE #44,"I-79, EXIT 67 & US-19/SR-4",Sutton,WV,44,3.559,39.36160525556104,-78.01504106708012,"Pond 4, West Virginia, United States",major_landform,0.466162,ok
1860,MR FUEL #278,"I-75/71, EXIT 175 & SR-338",Walton,KY,300,3.019,38.87561942044574,-84.61022134870291,"Walton, Kentucky, United States",municipality,0.564815,ok
1861,PETRO STOPPING CENTER #315,"I-40, EXIT 66",Kingman,AZ,910,3.899,35.189592223093626,-114.0532997623086,"Kingman, Arizona, United States",municipality,0.607143,ok
1866,PRI MART FUEL CENTER,"I-94, EXIT 29",Benton Harbor                           ,MI,465,3.799,42.11502010674802,-86.45200273508362,"West Main Street, Benton Harbor, Michigan 49022, United States",address,0.688889,ok
1866,PRI MART FUEL CENTER,"I-94, EXIT 29",Benton Harbor                           ,MI,465,3.499,42.11502010674802,-86.45200273508362,"West Main Street, Benton Harbor, Michigan 49022, United States",address,0.688889,ok
1873,JDS TRUCKSTOP,"US-12 & US-31, EXIT 3",Niles,MI,465,3.749,41.86041427561213,-86.28747799505936,"Niles Charter Township, Michigan, United States",municipality,0.489506,ok
1873,JDS TRUCKSTOP,"US-12 & US-31, EXIT 3",Niles,MI,465,3.849,41.86041427561213,-86.28747799505936,"Niles Charter Township, Michigan, United States",municipality,0.489506,ok
1874,CIRCLE K #2744529,US-175,Seagoville,TX,630,2.95066666,32.6428134522841,-96.50591214917392,"South Us Highway 175, Seagoville, Texas 75159, United States",address,0.873333,ok
1879,HOLIDAY STATIONSTORE #3552,"I-35, EXIT 81 & SR-70",Lakeville,MN,448,3.549,44.65005108925796,-93.24327919632196,"Lakeville, Minnesota, United States",municipality,0.564815,ok
1888,STRIPES 7FLEET #42449,US-87,Sterling City,TX,710,3.28066666,31.91261583076159,-101.12938556212265,"US Highway 87 North, Sterling, Texas 76951, United States",address,0.857407,ok
1889,TOOT N TOTUM #105,US-54 & US-287,Stratford,TX,585,2.96566666,36.33614045889056,-102.07211919128895,"Stratford, Texas, United States",municipality,0.607143,ok
1893,MIKE MCDONALD TRUCK STOP,"I-20, EXIT 509",Terrell                                 ,TX,637,2.87066666,32.73596278361344,-96.27525698393583,"Terrell, Texas, United States",municipality,0.607143,ok
1894,CIRCLE K #2741544,"I-37 & SR-72, EXIT 69",Three Rivers,TX,747,3.06566666,28.464761538878676,-98.18097554147243,"Three Rivers, Texas, United States",municipality,0.594444,ok
1897,YESWAY #1077,"I-20/US-84, EXIT 278",Tye,TX,575,2.87566666,32.454542114921125,-99.86851014196873,"Tye, Texas, United States",municipality,0.470679,ok
1905,LUCKY TRUCK STOP,US-82,Whitesboro                              ,TX,630,2.88566666,33.47135026332661,-94.46007973050644,"US Highway 82, Bowie, Texas 75570, United States",address,0.772222,ok
1909,RALLYSTOP #1,"I-15, EXIT 62",Cedar City,UT,791,3.459,37.67742385529961,-113.06182723492384,"Cedar City, Utah, United States",municipality,0.638889,ok
1914,LOVES TRAVEL STOP #792,"I-70, EXIT 160",Green River,UT,835,3.709,39.68629243364128,-109.69252320014294,"Green River, Utah, United States",major_landform,0.638889,ok
1921,BELL TRUCK STOP,"I-80, EXIT 146",Park City,UT,835,3.45233333,40.6460921686396,-111.49799644947052,"Park City, Utah, United States",municipality,0.638889,ok
1923,SCENIC QUIK STOP,"I-70, EXIT 54 & US-89",Salina,UT,835,3.459,38.95774206722949,-111.85998402535915,"Salina, Utah, United States",municipality,0.564815,ok
1930,CASEYS #3058,"I-35, EXIT 19 & US-160 E",Wellington,KS,570,3.299,39.04237110621399,-94.69560901810269,"Wellington Woods, Merriam, United States",place,0.476667,ok
1931,RBS ONE STOP,"I-15, EXIT 320",Woods Cross                             ,UT,835,3.459,40.874573934271204,-111.90172657370567,"Woods Cross, Utah, United States",municipality,0.638889,ok
1934,CIRCLE K #2723710,"I-77, EXIT 24",Austinville,VA,185,3.24066666,36.85123446795207,-80.91202341020107,"Austinville, Wythe, United States",place,0.607143,ok
1936,QUICK STOP MARKET #36,"I-81, EXIT 10 & US-11",Bristol,VA,185,3.399,37.26607574259961,-76.60816718148328,"Pond 11, Virginia, United States",major_landform,0.489506,ok
1940,7-ELEVEN #40063,"I-81, EXIT 98 & SR-100",Dublin,VA,65,3.199,37.10464089864984,-80.68505588918924,"Dublin, Virginia, United States",municipality,0.564815,ok
1944,LOVES TRAVEL STOPS #399,"I-77, EXIT 1 & SR-620",Lambsburg,VA,65,3.589,39.36304823258822,-78.01565423136452,"Pond 1, West Virginia, United States",major_landform,0.497531,ok
1944,LOVES TRAVEL STOP #399,"I-77, EXIT 1 & SR-620",Lambsburg,VA,65,3.589,39.36304823258822,-78.01565423136452,"Pond 1, West Virginia, United States",major_landform,0.497531,ok
1950,7-ELEVEN #34515,"I-81, EXIT 205",King George,VA,180,3.399,38.27863144241967,-77.17535622417927,"King George, Virginia, United States",county,0.638889,ok
1951,CIRCLE K #2723713,"I-81, EXIT 205",Staunton,VA,185,3.38566666,38.18371801457136,-79.00037876312587,"I 81, Augusta, Virginia 24482, United States",address,0.674603,ok
1953,FAS MART #3555,"I-64, EXIT 136 & US-15",Gordonsville,VA,180,3.699,38.13472192661392,-78.1865044310689,"Gordonsville, Virginia, United States",municipality,0.470679,ok
1954,Joe's Kwik Mart #8409,US-58 & CR-645,Suffolk,VA,130,3.03233333,37.32046015204724,-78.48962077416451,"County Road 645, Prince Edward, Virginia 23960, United States",address,0.730833,ok
1956,PILOT TRAVEL CENTER #4642,"I-81, EXIT 291",Toms Brook,VA,60,3.659,38.946498925543175,-78.43917421996593,"Toms Brook, Virginia, United States",municipality,0.638889,ok
1958,SPEEDWAY #4618,"I-81 & I-77, EXIT 77",Wytheville,VA,185,3.41233333,37.123224672946336,-78.49277213215828,"Virginia, United States",region,0.469136,ok
1960,MAPLEWOOD IRVING,"I-89, EXIT 7",Montpelier                              ,VT,170,3.699,44.87940131499396,-72.0572470665295,"Island Road, Charleston, Vermont 05872, United States",address,0.615333,ok
1962,SUPER QUIK,"I-64, EXIT 172 & SR-1/SR-7",Grayson,KY,255,3.799,38.333246684762265,-82.93745956687155,"Grayson, Kentucky, United States",municipality,0.537879,ok
1976,One9 #963,"I-90, EXIT 276",Spokane                                 ,WA,970,3.989,47.486241037545604,-117.58100081719107,"I Street, Cheney, Washington 99004, United States",address,0.712381,ok
1976,One9 #963,"I-90, EXIT 276",Spokane                                 ,WA,970,3.959,47.486241037545604,-117.58100081719107,"I Street, Cheney, Washington 99004, United States",address,0.712381,ok
1977,GEE CEES TRUCK STOP,"I-5, EXIT 57",Toledo,WA,977,3.839,47.18289333276613,-119.6933141526215,"I-5, Grant, Washington 98823, United States",address,0.670635,ok
1983,KWIK TRIP #427,"US-53, EXIT 110 & SR-40",Bloomer,WI,295,3.41566666,45.16310011599355,-91.46051395170724,"Town of Bloomer, Wisconsin, United States",municipality,0.564815,ok
1985,Camp Douglas BP,"I-90 & I-94, EXIT 55",Camp Douglas                            ,WI,420,3.154,43.91931461815012,-90.26810087263584,"Camp Douglas, Wisconsin, United States",municipality,0.594444,ok
2000,RIVER CITY TRAVEL PLAZA,US-41,Marinette,WI,360,3.399,45.07960270910834,-87.66462240368128,"US 41, Town of Peshtigo, Wisconsin 54143, United States",address,1,ok
2002,KWIK TRIP #222,US-53/US-2,Superior,WI,334,3.339,46.723805314478014,-92.12701597649595,"Major Richard I. Bong Memorial Highway, City of Superior, Wisconsin 54880, United States",address,0.78836,ok
2009,KWIK TRIP #139,"I-43, EXIT 120 & CR-V/CR-OK",Sheboygan,WI,444,3.29066666,43.750828532908436,-87.71453026682138,"Sheboygan, Wisconsin, United States",municipality,0.537879,ok
2020,BFS FOODS #72,"I-68, EXIT 23 & SR-26",Bruceton Mills,WV,165,3.499,39.65895541752831,-79.63964480906725,"Bruceton Mills, West Virginia, United States",municipality,0.594444,ok
2021,GO MART FOOD STORE #59,"I-64, EXIT 15 & US-60",Huntington,WV,255,3.499,38.41924966474234,-82.44515430182219,"Huntington, West Virginia, United States",municipality,0.564815,ok
2022,GO MART FOOD STORE #86,"I-79, EXIT 40 & SR-16",Ivydale                                 ,WV,44,3.599,38.7031826500166,-80.66307284999999,"I 79, Braxton, West Virginia 26601, United States",address,0.614198,ok
2029,HOMAX SERVICE,"I-25, EXIT 188",Mills                                   ,WY,790,3.169,42.84730999241783,-106.38191327753111,"Mills, Wyoming, United States",municipality,0.607143,ok
2030,GHOST TOWN FUEL STOP,US-26/US-20,Casper,WY,790,3.429,42.9842967952175,-106.34194510713917,"Casper, Natrona, United States",place,0.607143,ok
2034,TA CHEYENNE TRAVEL CENTER,"I-80, EXIT 377 & SR-217/CR-140",Cheyenne,WY,795,3.699,41.138458896720515,-104.78440579674128,"Cheyenne, Wyoming, United States",municipality,0.537879,ok
2040,Fast Stop Travel Centers #1133,"I-25, EXIT 126 & US-18/20",Douglas,WY,790,3.499,42.754128544484075,-105.39679780282546,"Douglas, Wyoming, United States",municipality,0.470679,ok
2041,PINE BLUFFS SINCLAIR,"I-80, EXIT 401 & US-30",Pine Bluffs,WY,795,3.699,41.18392620710748,-104.06842563733653,"Pine Bluffs, Wyoming, United States",municipality,0.594444,ok
2044,One9 #1251,"I-80, EXIT 173",Wamsutter,WY,795,3.499,41.66790418003464,-107.97902827526912,"Wamsutter, Wyoming, United States",municipality,0.607143,ok
2074,STRIPES #40522,"I-10, EXIT 550",San Antonio,TX,740,3.059,29.42460048503595,-98.49514067173004,"San Antonio, Texas, United States",municipality,0.638889,ok
2076,ALLSUPS CONVENIENCE STORE #2159,US-283 BUS/US-277 BUS & SR-422,Seymour,TX,770,3.299,31.263890659238534,-98.54561179876328,"Texas, United States",region,0.451178,ok
2078,ALLSUPS CONVENIENCE STORE #2366,US-84 & CR-3300,Slaton                                  ,TX,700,2.969,33.12072371521669,-94.80080997439313,"County Road 3300, Morris, Texas 75571, United States",address,0.670635,ok
2084,Main Street Market #112,"I-20, EXIT 73",Wickett,TX,710,2.879,31.568947207905474,-103.00370000302792,"Wickett, Texas, United States",municipality,0.607143,ok
2087,LWS TRUCK STOP,SR-30,Logan,UT,835,3.42566666,41.73130636971231,-111.8349140882492,"Logan, Utah, United States",municipality,0.683333,ok
2088,FLYING J TRAVEL PLAZA #773,"I-70, EXIT 40",Richfield                               ,UT,835,3.699,38.95237350906998,-109.68434687056873,"I-70, Grand, Utah 84540, United States",address,0.670635,ok
2089,FLYING J TRAVEL PLAZA #774,"I-84, EXIT 7",Snowville                               ,UT,835,3.749,41.965405873906505,-112.71034318953753,"Snowville, Utah, United States",municipality,0.607143,ok
2115,KWIK TRIP #838,SR-23/SR-33,Reedsburg,WI,420,3.194,43.4440342316686,-88.63603847077911,"State Highway 33, Horicon, Wisconsin 53032, United States",address,0.710454,ok
2125,BIG D #44,"I-80, EXIT 311 & SR-130",Laramie,WY,795,3.249,41.31062109094692,-105.6063764492311,"Laramie, Wyoming, United States",municipality,0.564815,ok
2144,Mountain View Truck Stop,US-15,Thurmont,MD,60,4.099,39.62360971403328,-77.4115401506424,"Thurmont, Maryland, United States",municipality,0.683333,ok
2152,SPEEDWAY #4709,"I-90, EXIT 102",Fairmont,MN,425,3.299,43.65217756252075,-94.4610832259059,"Fairmont, Minnesota, United States",municipality,0.607143,ok
2167,PILOT TRAVEL CENTERS #134,"I-94, EXIT 171 (CR 75)",Saint Cloud,MN,451,3.28733333,45.456893701303194,-94.12002071240335,"Opportunity Drive, Saint Cloud, Minnesota 56301, United States",address,0.711111,ok
2182,PILOT TRAVEL CENTER #4649,"I-64 & I-81, EXIT 205",Raphine,VA,185,3.659,37.87568392851842,-79.30949826165102,"I-64 & I-81, Rockbridge, Virginia 24435, United States",address,0.712963,ok
2192,GO MART FOOD STORE #51,US-19/SR-129,Mount Nebo                              ,WV,44,3.599,38.20011135297252,-80.85120800882578,"Mount Nebo, Nicholas, United States",place,0.638889,ok
2194,A AND A TRUCKSTOP,US-35 & CR-41,Jackson,OH,315,3.799,38.98921469228452,-82.51360001680615,"County Road 41, Bloomfield Township, Ohio 45640, United States",address,0.809153,ok
2196,Certified Oil #400410,I-76 EXIT 43,Ravenna,OH,249,3.31566666,41.161421393844165,-81.24188222864103,"Ravenna, Ohio, United States",municipality,0.607143,ok
2204,NATURAL BRIDGE SHELL,US-278 & SR-5,Lynn,AL,615,3.68233333,34.04704855294808,-87.54974003881216,"Lynn, Alabama, United States",municipality,0.607143,ok
2209,Roadrunner #471,"I-40/US-65, EXIT 142 & SR-365",North Little Rock,AR,695,3.03233333,34.769536154851096,-92.26709425449371,"North Little Rock, Arkansas, United States",municipality,0.587607,ok
2219,PILOT TRAVEL CENTER #66,"I-85, EXIT 129",Braselton,GA,16,3.27233333,34.10927372850408,-83.76267313957214,"Braselton, Georgia, United States",municipality,0.607143,ok
2219,PILOT TRAVEL CENTERS #66,"I-85, EXIT 129",Braselton,GA,16,3.27233333,34.10927372850408,-83.76267313957214,"Braselton, Georgia, United States",municipality,0.607143,ok
2223,PO JOS GAS N GO,"I-16 SR-404, EXIT 116 & US-301/SR-73",Register,GA,195,3.23233333,32.36593218929219,-81.88480789559759,"Register, Georgia, United States",municipality,0.519231,ok
2227,SPEEDWAY #7448,SR-59,Naperville,IL,293,3.299,41.74842587870473,-88.20815777666667,"S State Route 59, Aurora, Illinois 60504, United States",address,1,ok
2227,SPEEDWAY #7448,SR-59,Naperville,IL,293,3.359,41.74842587870473,-88.20815777666667,"S State Route 59, Aurora, Illinois 60504, United States",address,1,ok
2231,QUIKTRIP #605,"I-270, EXIT 33",Saint Louis,MO,540,2.899,38.70792775950411,-90.26278679009272,"270, Missouri, United States",road,0.648148,ok
2255,S&G #36,"I-280, EXIT 2 & SR-795",Millbury,OH,550,3.49233333,41.23541067645925,-82.58075327719615,"Upper Reservoir, Ohio, United States",major_landform,0.489506,ok
2267,Circle K #4703917,"I-65, EXIT 112 & SR-25",Cross Plains,TN,460,2.949,36.540830426063735,-86.67496287715846,"Cross Plains, Tennessee, United States",municipality,0.594444,ok
2283,CIRCLE K #2707321,SR-60,Bartow,FL,225,3.52233333,27.896438656694677,-81.84332326054573,"Bartow, Florida, United States",municipality,0.683333,ok
2287,SAC SHOP #511,"I-76/I-70, EXIT 146 & I-99/US-220 EXIT 1",Bedford,PA,14,4.099,40.04558879892408,-78.49976205176165,"Bedford Township, Pennsylvania, United States",municipality,0.471852,ok
2306,SCOTCHMAN #3894,"I-77, EXIT 73 & SR-901",Rock Hill,SC,210,3.079,34.92589061810672,-81.0412121591761,"Arcade Street, Rock Hill, South Carolina 29730, United States",address,0.753111,ok
2310,MAPCO #3686,"I-24, EXIT 175",Chattanooga,TN,285,2.889,35.19420108764189,-85.19529123415782,"Chattanooga, Tennessee, United States",municipality,0.607143,ok
2311,SHELL,"I-24 & EPPS MILL RD, EXIT 89",Christiana                              ,TN,460,3.13233333,35.7203178002529,-86.33511806883587,"Epps Mill Road, Rutherford, Tennessee 37037, United States",address,0.555556,ok
2331,PINNERS POINT,SR-135,Portsmouth,VA,130,3.499,36.85877016569557,-76.027328057879,"First Colonial Road, Virginia Beach, Virginia 23454, United States",address,0.757544,ok
2336,FLYING J TRAVEL PLAZA #754,"I-77 & I-81, EXIT 77",Wytheville,VA,185,3.549,37.123224672946336,-78.49277213215828,"Virginia, United States",region,0.469136,ok
2340,RSTORE #4478,SR-8 & SR-13,Prentice,WI,395,3.039,43.76980420229601,-88.43471752917162,"8th Street, Fond du Lac, Wisconsin 54935, United States",address,0.646986,ok
2557,PWI #106,"I-30, EXIT 77B",Royse City,TX,630,2.899,32.96609340671854,-96.33903957903385,"I-30 Frontage Road, Royse City, Texas 75189, United States",address,0.688889,ok
2602,PILOT TRAVEL CENTERS #9,"I-75, EXIT 36",Franklin,OH,407,3.35233333,39.315746899999986,-84.4315264,"I 75, West Chester Township, Ohio 45069, United States",address,0.674603,ok
2623,TA JANESVILLE TRAVEL CENTER,"I-90/I-39, EXIT 171B & US-14",Janesville,WI,420,3.299,42.682976641975166,-89.02267947793007,"Janesville, Wisconsin, United States",municipality,0.537879,ok
2626,WEST END SINCLAIR,"I-80, EXIT 211",Rawlins,WY,838,3.319,41.7848786191603,-107.22648972303386,"Rawlins, Wyoming, United States",municipality,0.607143,ok
2629,PILOT TRAVEL CENTERS #253,"I-295 & NJ TRNPK,  EXIT 2B",Penns Grove,NJ,243,3.989,39.72101046751121,-75.47133593026734,"NJ, Penns Grove, United States",place,0.666667,ok
2635,FLYING J #584,"I-5, EXIT 278",Aurora,OR,935,3.859,45.23104985462864,-122.75503523647785,"Aurora, Oregon, United States",municipality,0.607143,ok
2638,PIT STOP TRAVEL CENTER,US-789,Riverton                                ,WY,790,4.399,42.81248633248661,-107.61340885999999,"Riverton, Fremont, United States",place,0.683333,ok
2640,LITTLE NASHVILLE,"I-64, EXIT 50 & SR-127",Nashville,IL,540,3.399,38.34349061784596,-89.38097834587097,"Nashville, Illinois, United States",municipality,0.564815,ok
2640,LITTLE NASHVILLE,"I-64, EXIT 50 & SR-127",Nashville,IL,540,3.299,38.34349061784596,-89.38097834587097,"Nashville, Illinois, United States",municipality,0.564815,ok
2644,FREDERICKS TRAVEL CENTER,"I-25/US-87, EXIT 235 & SR-52",Erie,CO,800,3.499,40.05026244301199,-105.04998106509447,"Erie, Colorado, United States",municipality,0.537879,ok
2756,PAR MAR FOOD STORE #89,"I-77/SR-2, EXIT 170 & SR-14 E",Mineral Wells,WV,430,3.499,39.38399067480632,-78.94169244915247,"Mineral, West Virginia, United States",county,0.519231,ok
2761,PONY EXPRESS SERVICE CENTER,US-36 & SR-148,Hanover,KS,316,2.95566666,39.11257231954286,-95.66053407266736,"Northwest 36th Street, Shawnee, Kansas 66617, United States",address,0.651127,ok
2764,LOVES TRAVEL STOP #046,US-64/54 & SR-94,Hooker,OK,585,3.56233333,35.14111693662521,-97.30254976666663,"Southeast 94th Street, Slaughterville, Oklahoma 73068, United States",address,0.551386,ok
2765,LOVES TRAVEL STOP #023,US-50 & US-287,Lamar,CO,525,3.46233333,38.237874208178646,-104.34802190968855,"US-50 BUS, Pueblo, Colorado 81022, United States",address,0.777485,ok
2772,PILOT TRAVEL CENTERS #29,"I- 80, EXIT 144; I-69, EXIT 357",Fremont                                 ,IN,465,3.899,41.730883516709405,-84.93273954838514,"Fremont, Indiana, United States",municipality,0.537879,ok
2772,PILOT TRAVEL CENTER #29,"I- 80, EXIT 144; I-69, EXIT 357",Fremont                                 ,IN,465,3.899,41.730883516709405,-84.93273954838514,"Fremont, Indiana, United States",municipality,0.537879,ok
2779,Stinker #121,I-84 & EXIT 208,Heyburn,ID,787,3.56066666,42.56276388417879,-113.76538946837218,"Heyburn, Idaho, United States",municipality,0.607143,ok
2788,JIFFY MART #451,"I-91, EXIT 17 & SR-302",Wells River,VT,39,3.569,44.15429985493996,-72.04716369509697,"Wells River, Newbury, United States",municipal_district,0.594444,ok
2805,Fast Stop Travel Centers #1145,"I-15,  EXIT 31",Downey,ID,825,3.799,42.42882807936002,-112.12330452225422,"Downey, Idaho, United States",municipality,0.607143,ok
2807,SUDDEN SERVICE #25,"I-24, EXIT 11",Clarksville,TN,460,3.30733333,36.531302800000006,-87.23071700000003,"I-24, Clarksville, Tennessee 37043, United States",address,0.761905,ok
2811,KWIK FILL #22,"I-90, EXIT 40 & SR-34/SR-31",Weedsport,NY,220,3.899,43.048677200407155,-76.56271990388632,"Village of Weedsport, New York, United States",municipality,0.537879,ok
2817,Chevron #382354,"I-5/US-12, EXIT 72",Chehalis,WA,977,4.299,46.659965363622874,-122.96343214809895,"Chehalis, Washington, United States",municipality,0.564815,ok
2848,TA TONOPAH TRAVEL CENTER,"I-10, EXIT 103",Tonopah,AZ,930,3.939,33.57600340012915,-113.41889006666668,"I-10, La Paz, Arizona, United States",address,0.670635,ok
2851,SPEEDWAY #2958,"I-8, EXIT 12",Yuma,AZ,900,3.479,37.20715128274235,-113.39271107301505,"12, Hurricane, United States",place,0.703373,ok
2862,TA TALLULAH TRAVEL CENTER,"I-20, EXIT 171 & US-65",Tallulah,LA,760,3.209,32.33000853291372,-90.97555814310908,"Tallulah, Madison Parish, United States",place,0.481481,ok
2864,KUM & GO #0493,I-49 BUS/SR-59,Neosho,MO,535,3.059,36.86652016749302,-94.37016539275646,"Neosho, Missouri, United States",municipality,0.583333,ok
2875,CIRCLE K #2744138,"I-25, EXIT 101 & US-50/SR-47",Pueblo,CO,803,3.399,38.72517780349647,-105.60771625488997,"Colorado, United States",region,0.451178,ok
2883,PILOT TRAVEL CENTER #293,"I-75, EXIT 341 & CR-484",Ocala                                   ,FL,140,3.41233333,29.187198667075805,-82.14009258896112,"Ocala, Florida, United States",municipality,0.564815,ok
2883,PILOT TRAVEL CENTERS #293,"I-75, EXIT 341 & CR-484",Ocala                                   ,FL,140,3.359,29.187198667075805,-82.14009258896112,"Ocala, Florida, United States",municipality,0.564815,ok
2885,SP Truckstop & Travel Center,US-84/SR-38,Bainbridge,GA,20,3.599,34.41617750620565,-83.13419200479984,"Reservoir 38, Georgia, United States",major_landform,0.566667,ok
2889,MOULTON COWBOYS,SR-157,Moulton                                 ,AL,615,3.099,34.481781778444095,-87.29194521903992,"Moulton, Alabama, United States",municipality,0.683333,ok
2891,PETRO STOPPING CENTER #338,"I-80, EXIT 21",Sparks,NV,966,3.949,39.54256937414885,-119.75812678596793,"I Street, Sparks, Nevada 89431, United States",address,0.712381,ok
2895,EAGLE TRUCK STOP,I-77 EXIT 81,New Philadelphia,OH,249,3.31566666,40.49354659999997,-81.4787475,"I 77, New Philadelphia, Ohio 44622, United States",address,0.777778,ok
2896,NORTH LEWISTON DYNAMART,US-12 & SR 128,Lewiston,ID,970,3.669,46.40971117239174,-117.01607755139014,"12th Street, Lewiston, Idaho 83501, United States",address,0.749397,ok
2897,GAS N GO #15,"I-80, EXIT 41",Lyman,WY,827,3.46566666,41.32744434728067,-110.29779996552543,"Lyman, Wyoming, United States",municipality,0.607143,ok
2910,FLYING J TRAVEL PLAZA #685,"I-29 & I- 94, EXIT 349",Fargo                                   ,ND,341,3.569,46.84771090101804,-96.78249369999997,"I 94, Fargo, North Dakota 58103, United States",address,0.691358,ok
2913,ONE9#226,"I-40, EXIT 417 & SR-92",Dandridge,TN,405,3.259,36.036492550056586,-83.43436270952225,"SR 92, Dandridge, Tennessee 37725, United States",address,0.691358,ok
2915,TP TRUCK STOP,"I-15, EXIT 80",Fort Hall                               ,ID,825,3.519,43.01441392451966,-112.45733264123999,"Fort Hall, Idaho, United States",municipality,0.638889,ok
2917,GOLDYS TRUCK PLAZA,US-29,Rustburg,VA,185,3.519,36.764193330782525,-79.38843046469151,"US 29, Pittsylvania, Virginia 24531, United States",address,0.772222,ok
2922,LOVES TRAVEL STOP #210,"I-40, EXIT 158",Albuquerque,NM,580,3.52066666,35.10826792519902,-106.69987855874297,"I-40 Trail, Bernalillo, New Mexico 87120, United States",address,0.714286,ok
2923,LOVES TRAVEL STOP #435,"I-95, EXIT 104 & SR-207",Ruther Glen,VA,180,3.611,37.940875477620914,-77.46186476200819,"Ruther Glen, Caroline, United States",place,0.594444,ok
2923,LOVES TRAVEL STOPS #435,"I-95, EXIT 104 & SR-207",Ruther Glen,VA,180,3.589,37.940875477620914,-77.46186476200819,"Ruther Glen, Caroline, United States",place,0.594444,ok
2924,HWY 190 FUEL STOP,US-190,Jasper                                  ,TX,610,3.13233333,30.902405691590545,-93.8999170009863,"Us Highway 190 East, Jasper, Texas 75951, United States",address,1,ok
2926,EXIT 77 TRAVEL PLAZA,"I-81, EXIT 77 & SR-39",Harrisburg,PA,70,3.499,40.2663109374502,-76.88611250370741,"Harrisburg, Pennsylvania, United States",municipality,0.564815,ok
2929,TA EXPRESS STEELE,"I-94, EXIT 200 & SR- 3",Steele,ND,390,3.599,47.441305540136874,-97.74503745138645,"Steele, North Dakota, United States",county,0.564815,ok
2935,CIRCLE K #2726163,"I-295, EXIT 22",Jacksonville,FL,75,3.299,30.17452560566618,-81.61293260285117,"I-295, Florida, United States",road,0.761905,ok
2937,FLYING J TRAVEL PLAZA #664,"I-75, EXIT 171",Walton,KY,300,3.08566666,38.99784395634097,-84.63548381374738,"I-75, Kentucky, United States",road,0.674603,ok
2956,PILOT TRAVEL CENTERS #275,"I-85, EXIT 39 I-77, EXIT 13",Charlotte,NC,46,3.55233333,35.20894166046837,-80.83099026720015,"Charlotte, North Carolina, United States",municipality,0.537879,ok
2963,SUPERPUMPER #26,"I-94, EXIT 258 & US-281",Jamestown,ND,390,3.629,46.910544198243905,-98.70843630284071,"Jamestown, North Dakota, United States",municipality,0.564815,ok
2967,PETRO STOPPING CENTER #317,"I-57, EXIT 71",Perrysburg,OH,550,3.78566666,41.55711799693676,-83.62793236970901,"Perrysburg, Ohio, United States",municipality,0.607143,ok
2968,E-Z MART #4460,"I-20,  EXIT 124",Monroe,LA,719,3.129,32.50254737822053,-92.11621932685375,"Monroe, Louisiana, United States",municipality,0.607143,ok
2977,DISCOUNT FUEL,"I-90, EXIT 150 & SR-73",Kadoka,SD,506,3.229,43.83388200908055,-101.509866155684,"Kadoka, South Dakota, United States",municipality,0.564815,ok
2982,CIRCLE K #2723726,"I-59/I-20, EXIT 52 & US-11/US-43/SR-7",Knoxville,AL,705,3.089,33.258881825114855,-86.82953372597694,"Alabama, United States",region,0.42963,ok
3003,CHEVRON,"I-20, EXIT 186",Delta                                   ,LA,760,2.994,32.327407072695685,-90.92508282512426,"Delta, Louisiana, United States",municipality,0.607143,ok
3008,BUSY BEE,"I-10, EXIT 283 & US-129",Live Oak,FL,10,3.779,30.29618937460361,-82.98428870737553,"Live Oak, Florida, United States",municipality,0.594444,ok
3022,TA GREENCASTLE TRAVEL CENTER,"I-81, EXIT 5",Greencastle,PA,70,3.959,41.81635589612872,-75.69883682587408,"I 81 N, Harford Township, Pennsylvania 18834, United States",address,0.61746,ok
3030,Mr Ts Riverside,US-412,Cardwell                                ,MO,435,3.199,36.04198183148963,-90.33866174519062,"US Highway 412, Dunklin, Missouri 63829, United States",address,0.936667,ok
3064,PORTS TO PLAINS TRAVEL PLAZA,US-50 & US-287,Lamar,CO,800,3.399,38.237874208178646,-104.34802190968855,"US-50 BUS, Pueblo, Colorado 81022, United States",address,0.777485,ok
3086,SPEEDWAY #4638,US-29,Madison Heights,VA,185,3.49566666,37.43170576593231,-79.12373933941126,"Madison Heights, Amherst, United States",place,0.712963,ok
3093,RSTORE #4488,US-51,Merrill,WI,395,3.24066666,45.180522231713645,-89.68345910310745,"Merrill, Wisconsin, United States",municipality,0.683333,ok
3096,HOBO PANTRY #6,US-431/SR-210,Dothan,AL,20,3.959,31.223728656076016,-85.39343778043985,"Dothan, Alabama, United States",municipality,0.607143,ok
3118,MOBIL,"I-87, EXIT 42 & US-11",Champlain,NY,39,3.799,44.98884713469294,-73.38599066163715,"11, New York, United States",major_landform,0.564815,ok
3128,TA ATLANTA SOUTH TRAVEL CENTER,"I-75, EXIT 201 & SR-36",Jackson,GA,18,3.334,33.294565264085946,-83.96602112799883,"Jackson, Georgia, United States",municipality,0.564815,ok
3138,TA EXPRESS #6264,"I-70, EXIT 26 & US-50",Grand Junction,CO,800,4.049,39.06725703445114,-108.56448020786047,"Grand Junction, Colorado, United States",municipality,0.594444,ok
3139,CHEROKEE TRAVEL MART,"I-40,  EXIT 108",Calumet                                 ,OK,483,3.10566666,35.60136313511374,-98.12464043623066,"Calumet, Oklahoma, United States",municipality,0.607143,ok
3148,YESWAY #1038,US-60 & SR-86,Neosho,MO,307,3.059,36.86652016749302,-94.37016539275646,"Neosho, Missouri, United States",municipality,0.607143,ok
3155,QUIK MART #18,US-72/SR-157,Tuscumbia                               ,AL,615,3.00733333,34.71191701588465,-87.67071891835349,"US-72 East, Tuscumbia, Alabama 35674, United States",address,0.666667,ok
3163,QUIKTRIP #71,"I-44, EXIT 238",Tulsa,OK,560,3.039,36.15542238251956,-95.98968923091888,"Tulsa, Oklahoma, United States",municipality,0.607143,ok
3164,QUIKTRIP #102,"I-44, EXIT 222A",Tulsa,OK,560,3.039,34.58663181069584,-98.39354016527238,"I-44, Oklahoma, United States",road,0.670635,ok
3165,LOVES TRAVEL STOP #213,"I-35, EXIT 211",Tonkawa,OK,500,3.584,34.1393052,-97.15570170000001,"I-35, Ardmore, Oklahoma 73401, United States",address,0.670635,ok
3167,JASPER FOOD MART,US-78,Jasper,AL,615,3.229,33.84272899729129,-87.23599304770738,"US 78, Jasper, Alabama 35501, United States",address,1,ok
3171,One9 #265,"I-40, EXIT 287 & SR-136",Cookeville,TN,405,3.084,36.13713610349853,-85.45188271666666,"I 40, Cookeville, Tennessee 38506, United States",address,0.691358,ok
3176,BP,US-6 & SR-15,New Paris                               ,IN,365,3.65733333,41.500326991779716,-85.82804851233959,"New Paris, Indiana, United States",municipality,0.638889,ok
3178,ERNIES FUEL STOP #1605,SR-167,Kent,WA,977,4.599,47.46701546591142,-122.2173574522215,"Rainier Avenue South, Renton, Washington 98055, United States",address,0.886111,ok
3179,MR FUEL #1020,"I-80 & I-94, EXIT 15B",Lake Station,IN,365,3.56566666,41.57503700730708,-87.23892465233803,"Lake Station, Indiana, United States",municipality,0.594444,ok
3191,BUSY CORNER TRUCK STOP AND MARKET,"I-24, EXIT 105 & US-41/SR-2",Manchester,TN,460,3.049,36.14596369384162,-83.8592620044821,"Field 2, Tennessee, United States",major_landform,0.466162,ok
3205,CROSSROADS TRUCK STOP STATION,"I-29 & SR 34, MM 109",Colman                                  ,SD,530,3.159,43.98337858626881,-96.81476853682108,"Colman, South Dakota, United States",municipality,0.564815,ok
3206,PERHAM OASIS,US-10 & SR-78,Perham,MN,250,3.499,46.560458379076586,-95.50004905000003,"US Highway 10, Otter Tail, Minnesota 56573, United States",address,0.539683,ok
3215,SHELL TRUCKSTOP,"I-4, EXIT 44",Polk City,FL,225,3.449,28.15755000000001,-81.83578620000003,"W I-4, Polk, Florida 33868, United States",address,0.844444,ok
3216,MAXS #124,"I-24, EXIT 86 & US-41",Oak Grove,KY,460,3.04233333,37.344214974424844,-86.75471216440201,"Oak Grove, Ohio, United States",place,0.594444,ok
3221,Pilot #1440,"US-67, EXIT 55 & US-64/US-167 & SR-367",Bald Knob,AR,695,3.399,35.34156111243041,-91.59218284245287,"Lake Bald Knob, Arkansas, United States",major_landform,0.503175,ok
3221,Southern Travel Plaza,"US-67, EXIT 55 & US-64/US-167 & SR-367",Bald Knob,AR,695,3.391,35.34156111243041,-91.59218284245287,"Lake Bald Knob, Arkansas, United States",major_landform,0.503175,ok
3222,POMPANO TRUCK STOP,"I-95, EXIT 36B",Pompano Beach,FL,95,3.759,26.318168752841178,-80.11633738875389,"I-95, Florida, United States",road,0.666667,ok
3226,ONE9 #245,"I-81, EXIT 77 & SR-39",Harrisburg,PA,70,3.609,40.2663109374502,-76.88611250370741,"Harrisburg, Pennsylvania, United States",municipality,0.564815,ok
3227,ONE9 MR FUEL #64,"I-26 & US-17, EXIT 199",Summerville,SC,42,3.219,34.22363987641225,-80.13730351865922,"feild 26, South Carolina, United States",major_landform,0.489506,ok
3227,MR FUEL DBA ONE9 #64,"I-26 & US-17, EXIT 199",Summerville,SC,42,3.219,34.22363987641225,-80.13730351865922,"feild 26, South Carolina, United States",major_landform,0.489506,ok
3230,STRIPES #40815,US-281 & US-285,Falfurrias,TX,625,3.299,27.214183584550792,-98.14433281753571,"South Business 281, Falfurrias, Texas 78355, United States",address,0.698413,ok
3264,TA WEST MEMPHIS TRAVEL CENTER,"I-40/US-63, EXIT 260 & SR-149",Earle,AR,435,3.36733333,35.27064413183138,-90.46570189297199,"Earle, Arkansas, United States",municipality,0.537879,ok
3280,OUTPOST TRUCK STOP,US-85 & US-18/US-20,Lusk,WY,790,3.689,42.761262892027496,-104.45840144504996,"Lusk, Wyoming, United States",municipality,0.470679,ok
3281,AMERICAN TRUCK PLAZA,I-80 EXIT 215 & SR-254,Milton,PA,138,3.799,41.01772714098666,-76.85308411717415,"Milton, Pennsylvania, United States",municipality,0.564815,ok
3284,CASEYS #4390,"I-49/US-71, EXIT 77 & US-160",Lamar,MO,416,3.199,37.26893150096857,-94.03235591948032,"Number 71 Lake, Missouri, United States",major_landform,0.466162,ok
3297,SAPP BROS TRAVEL CENTER,"I-80, EXIT 370",Cheyenne,WY,795,3.70066666,41.11633094902518,-104.82384976174092,"Pedestrian & Bike Bridge over I-80, Cheyenne, Wyoming 82007, United States",address,0.619048,ok
3316,TRUCKOMAT OF N LITTLE ROCK,"I-40, EXIT 161 & SR-391",North Little Rock                       ,AR,695,3.249,34.769536154851096,-92.26709425449371,"North Little Rock, Arkansas, United States",municipality,0.618687,ok
3326,MIRABITO #61,"I-81, EXIT 32",Central Square,NY,12,4.299,42.36422856594583,-73.59473314960081,"Central Square, Village of Chatham, New York 12037, United States",address,0.691389,ok
3330,TA # 211 GREENLAND TRAVEL CENTER,"I-95, EXIT 3A & US-101",Greenland,NH,34,3.759,43.03852432296803,-70.84792833752147,"Greenland, New Hampshire, United States",municipality,0.470679,ok
3349,QUEEN CITY TRUCK STOP,"I-20 & I-59, EXIT150",Meridian,MS,705,2.939,32.36431007390996,-88.70365619659424,"Meridian, Mississippi, United States",municipality,0.583333,ok
3383,E-Express at Central Truck Stop,"I-35, EXIT 137",Oklahoma City,OK,483,2.879,35.723885199999984,-97.41819980000002,"N I 35, Oklahoma, Oklahoma 73034, United States",address,0.844444,ok
3386,LONGMONT TRUCK STOP,"I-25/US-87, EXIT 240 & SR-119",Longmont,CO,800,3.239,38.76696201739259,-104.69693890319098,"Pond 25, Colorado, United States",major_landform,0.50202,ok
3401,POPS Mart #333,"I-77, EXIT 48 & SR-200",Winnsboro,SC,46,3.09066666,34.37241684422233,-81.09057250255216,"Winnsboro, South Carolina, United States",municipality,0.564815,ok
3413,COUNTRY GIRL TRUCK STOP,US-167 & SR-156,Winnfield,LA,590,3.319,31.925228131912117,-92.63994008302689,"Winnfield, Louisiana, United States",municipality,0.607143,ok
3415,JAYS EL CHEAPO FUEL STOP,"I-16, EXIT 104",Metter                                  ,GA,195,3.249,32.397118187927916,-82.06011984497309,"Metter, Georgia, United States",municipality,0.607143,ok
3418,Par Mar Store #164,"I-79, EXIT 105 & CR-7",Jane Lew,WV,165,3.999,39.109874710636355,-80.40679883211851,"Jane Lew, West Virginia, United States",municipality,0.594444,ok
3421,ERNIES TRUCK STOP,"I-5, EXIT 142",Federal Way,WA,977,4.599,47.27100244932545,-122.31497777172058,"SeaTac Rest Area, Federal Way, Washington 98003, United States",address,0.644444,ok
3422,PWI #167,"I-10, EXIT 601",Seguin,TX,740,2.889,29.599137084347277,-97.91668595532383,"I-10 Frontage Road, Seguin, Texas 78155, United States",address,0.666667,ok
3427,JOHNNYS MARKET,"I-69, EXIT 357",Fremont,IN,465,3.699,41.730883516709405,-84.93273954838514,"Fremont, Indiana, United States",municipality,0.607143,ok
3432,PILOT TRAVEL CENTER #34,"I-65, EXIT 201 & US-231",Remington,IN,365,3.709,40.76087297331885,-87.15085230767727,"Remington, Indiana, United States",municipality,0.564815,ok
3432,PILOT TRAVEL CENTERS #34,"I-65, EXIT 201 & US-231",Remington,IN,365,3.659,40.76087297331885,-87.15085230767727,"Remington, Indiana, United States",municipality,0.564815,ok
3435,PWI #168,"I-35, EXIT 266 & SR-195",Georgetown,TX,740,2.799,30.637015449295223,-97.67756346613169,"Georgetown, Texas, United States",municipality,0.564815,ok
3444,Acme Truck Stop,US-441/SR-500,Orlando,FL,140,3.449,30.26339170999429,-81.52057869617704,"Orlando, Jacksonville, United States",place,0.607143,ok
3460,CHROME TRUCK STOP,US-18 & US-169,Algona,IA,433,3.499,43.06996643789477,-94.2330190166831,"Algona, Iowa, United States",municipality,0.607143,ok
3464,BOISE PETROLEUM LLC,"I-84,  EXIT 71",Boise,ID,785,3.379,43.6166164189291,-116.20088618248701,"Boise, Idaho, United States",municipality,0.607143,ok
3471,MR FUEL DBA ONE9 #72,"I-16, EXIT 160",Savannah,GA,195,3.13233333,32.079007657693765,-81.09213374555111,"Savannah, Georgia, United States",municipality,0.607143,ok
3471,ONE9 MR FUEL #72,"I-16, EXIT 160",Savannah,GA,195,3.119,32.079007657693765,-81.09213374555111,"Savannah, Georgia, United States",municipality,0.607143,ok
3475,PILOT TRAVEL CENTERS #56,"I-85, EXIT 63",Kannapolis,NC,46,3.499,35.49796062855062,-80.62400110065937,"Kannapolis, North Carolina, United States",municipality,0.607143,ok
3477,CIRCLE K #4707404,"I-91, EXIT 7",Springfield,VT,170,3.699,43.29882133389895,-72.48177476227283,"Springfield, Vermont, United States",municipality,0.607143,ok
3479,FAST MARKET #4550,"I-75/SR-401, EXIT 136 & US-341",Perry,GA,85,3.099,32.458669704292326,-83.73196586966515,"Perry, Georgia, United States",municipality,0.537879,ok
3493,CIRCLE K #2723675,"I-75, EXIT 290 & SR-20",Cartersville,GA,18,3.08566666,34.16523043077912,-84.79976132512093,"Cartersville, Georgia, United States",municipality,0.564815,ok
3519,PILOT TRAVEL CENTERS #431,"I-10, EXIT 873",Orange,TX,610,3.309,30.126693524245965,-93.88365795051863,"West I-10 Service Road, Orange, Texas 77630, United States",address,0.785714,ok
3522,SUNMART #308,US-59,Livingston                              ,TX,610,2.859,30.838148013909933,-94.86026424011436,"Us Highway 59, Polk, Texas 77351, United States",address,0.936667,ok
3526,JOE STOP 99,"I-75, EXIT 99 & SR-119",Anna,OH,411,3.064,40.39645766917763,-84.17601104969327,"Anna, Ohio, United States",municipality,0.564815,ok
3530,SPARKYS ONE STOP #22,"I-35, EXIT 111B & US-30",Jefferson,IA,320,3.23233333,41.01313434615989,-91.97186451405287,"Jefferson, Iowa, United States",county,0.564815,ok
3536,PETRO STOPPING CENTER #307,I-40 EAST & S LAKESIDE Dr,Amarillo,TX,585,3.279,35.20729014949997,-101.8371194601059,"Amarillo, Texas, United States",municipality,0.564815,ok
3539,Bigs 211,"I-10, EXIT 620 & SR-123",Seguin,TX,740,3.099,29.568841269419828,-97.9647271335125,"Seguin, Texas, United States",municipality,0.564815,ok
3545,STOCKMENS TRUCK PLAZA,"I-494, EXIT 64A",South Saint Paul,MN,450,3.499,44.89066957675781,-93.03728085011244,"South Saint Paul, Minnesota, United States",municipality,0.66358,ok
3580,STINKER I 80 TRAVEL PLAZA,"I-80, EXIT 221 & SR-76",Sinclair,WY,838,3.759,41.779175588418425,-107.11625095456839,"Sinclair, Wyoming, United States",municipality,0.564815,ok
3585,CHEVRON,"I-80, EXIT 129",Lovelock,NV,966,3.499,39.6147691,-119.23009880000001,"I 80, Fernley, Nevada 89408, United States",address,0.670635,ok
3588,BINGO TRUCK STOP,"I-10, EXIT 829 & SR-124",Winnie                                  ,TX,610,2.999,29.865621654725924,-94.34981139368159,"I-10 Service Road, Jefferson, Texas 77665, United States",address,0.607407,ok
3592,TA BRIDGER TRAVEL CENTER #188,"I-80, EXIT 30 & CR-202",Fort Bridger,WY,835,3.71566666,41.318046353325144,-110.38672256675852,"I 80 Business, Uinta, Wyoming 82933, United States",address,0.631111,ok
3593,TA Parowan Travel Center,"I-15, EXIT 78",Parowan,UT,910,3.70566666,37.84219770139356,-112.8279996290803,"Parowan, Utah, United States",municipality,0.607143,ok
3605,SPEEDYS #6,"I-35, EXIT 33",Saint Joseph,MO,400,3.169,39.76860572302097,-94.84663233160973,"Saint Joseph, Missouri, United States",municipality,0.638889,ok
3608,FUEL MART #787,"I-57, EXIT 212 & US-36",Tuscola,IL,280,3.199,38.8494554285608,-89.9494652975207,"Bunker 36, Illinois, United States",major_landform,0.489506,ok
3614,PILOT TRAVEL CENTERS #35,"I-80/90, EXIT 72 & US-31",South Bend                              ,IN,465,3.799,41.68338142065833,-86.25000692903996,"South Bend, Indiana, United States",municipality,0.594444,ok
3614,PILOT TRAVEL CENTER #35,"I-80/90, EXIT 72 & US-31",South Bend                              ,IN,465,3.799,41.68338142065833,-86.25000692903996,"South Bend, Indiana, United States",municipality,0.594444,ok
3616,PILOT TRAVEL CENTERS #15,"I-75, EXIT 210",Toledo,OH,550,3.77233333,41.627302240507625,-83.54384962219586,"I 75, Toledo, Ohio 43609, United States",address,0.761905,ok
3619,ROAD RANGER #141,"I-70, EXIT 23",Brazil,IN,375,3.659,39.8658424,-84.94561799999997,"I- 70, Wayne, Indiana 47374, United States",address,0.670635,ok
3620,One9 #16,"I-71 & US-68, EXIT 50",Wilmington                              ,OH,315,3.14233333,39.44533935920717,-83.82853779941797,"Wilmington, Ohio, United States",municipality,0.564815,ok
3645,SNOW SHOE TRAVEL PLAZA,"I-80, EXIT 147 & SR-144",Snow Shoe,PA,14,3.469,40.98001399999999,-78.13118680000002,"I 80, Cooper Township, Pennsylvania 16849, United States",address,0.611111,ok
3678,TIMES MARKET #299,US-281 BUS,Alice,TX,625,3.099,27.30763844934822,-97.66206314849995,"ALICE, Kleberg, United States",place,0.638889,ok
3688,SPEEDWAY #2314,"I-94, EXIT 243 & SR-29",New Baltimore,MI,342,3.559,42.68114364087492,-82.73686163127422,"New Baltimore, Michigan, United States",municipality,0.594444,ok
3688,SPEEDWAY #2314,"I-94, EXIT 243 & SR-29",New Baltimore,MI,342,3.579,42.68114364087492,-82.73686163127422,"New Baltimore, Michigan, United States",municipality,0.594444,ok
3692,CHARLOTTE TRAVEL PLAZA,"I-77,  EXIT 16B",Charlotte,NC,46,3.53233333,35.43574235562472,-80.86936518666818,"I 77, Huntersville, North Carolina 28078, United States",address,0.674603,ok
3699,WARREN TRAVEL PLAZA,"I-69, EXIT 278 & SR-5",Warren,IN,375,3.399,40.3424547788149,-87.35642552375793,"Warren, Indiana, United States",county,0.564815,ok
3702,BEARS DEN TRADING POST #101,ST 37 11 MI E OF MASSENA,Hogansburg                              ,NY,39,3.649,44.930082381653484,-74.89224247634411,"Village of Massena, New York, United States",municipality,0.476667,ok
3707,SPEEDWAY #4704,"I-90, EXIT 154",Albert Lea,MN,425,3.299,43.67012759999997,-93.28449749999999,"I-90, Hayward Township, Minnesota 56007, United States",address,0.666667,ok
3718,SPEEDWAY #4706,"I-90, EXIT 265",Chamberlain,SD,455,3.299,44.063089100000006,-102.44003020000002,"I 90, Pennington, South Dakota 57790, United States",address,0.670635,ok
3719,KEYSTONE TRUCK STOP,US-22 & SR-164,Loretto,PA,14,3.999,39.93467065172808,-75.18087448824622,"South 22nd Street, Philadelphia, Pennsylvania 19146, United States",address,0.651127,ok
3725,GENEVA TRUCK STOP,"I-79, EXIT 35/141",Cochranton                              ,PA,240,3.81566666,41.52005361269731,-80.04839301109314,"Cochranton, Pennsylvania, United States",municipality,0.607143,ok
3728,PLAZA 23 TRUCK STOP,"I-787, EXIT 2",Albany,NY,12,3.799,42.69855166894576,-73.7198402407696,"787, New York, United States",road,0.809524,ok
3737,JORDAN'S KWIK STOP #70,US-49,West Helena                             ,AR,435,3.399,34.554240795814934,-90.75862191617489,"US 49, Phillips, Arkansas 72390, United States",address,1,ok
3745,PILOT TRAVEL CENTER #906-TOWN PUMP,"I-90, EXIT 408 & SR-78",Columbus,MT,780,3.58066666,45.63661144474637,-109.25215400755405,"Columbus, Montana, United States",municipality,0.564815,ok
3759,EXXON,US-67 & SR-18,Newport,AR,695,4.13233333,35.606715655634105,-91.28303367644548,"Newport, Arkansas, United States",municipality,0.607143,ok
3767,SIMMONS TRAVEL CENTER,"I-95, EXIT 8 & US-301",Emporia,VA,180,3.099,36.69376081099738,-77.53571435809135,"Emporia, Virginia, United States",county,0.564815,ok
3772,Brake Time Corner Market,"I-25, EXIT 240",Burlington                              ,CO,800,3.499,39.30468295929404,-102.26800661534071,"Burlington, Colorado, United States",municipality,0.607143,ok
3774,SINCLAIR,"I-70, EXIT 438",Burlington                              ,CO,796,3.889,39.30468295929404,-102.26800661534071,"Burlington, Colorado, United States",municipality,0.607143,ok
3781,REATTA TRAVEL STOP,"I-76, EXIT 149 & SR-55/CR-81",Crook,CO,475,3.38233333,40.857802420536075,-102.80118685215712,"Crook, Colorado, United States",municipality,0.537879,ok
3783,CIRCLE K #2744095,"I-25, EXIT 215",Denver,CO,800,3.299,39.73923659053256,-104.98486205935478,"Denver, Colorado, United States",county,0.607143,ok
